UNITID,OPEID,OPEID6,INSTNM,CITY,STABBR,ZIP,ACCREDAGENCY,INSTURL,NPCURL,SCH_DEG,MAIN,NUMBRANCH,PREDDEG,HIGHDEG,CONTROL,ST_FIPS,REGION,LOCALE,LOCALE2,LATITUDE,LONGITUDE,ADM_RATE,ADM_RATE_ALL,UGDS,AGE_ENTRY,MARRIED,DEPENDENT,VETERAN,FIRST_GEN
100654,100200,1002,Alabama A & M University,Normal,AL,35762,Southern Association of Colleges and Schools Commission on Colleges,www.aamu.edu/,www.aamu.edu/admissions-aid/tuition-fees/net-price-calculator.html,3,1,1,3,4,1,1,5,12,NULL,34.783368,-86.568502,0.9175,0.9175,5271,20.28374137,0.009102323,0.901129944,0.003138732,0.365828092
100663,105200,1052,University of Alabama at Birmingham,Birmingham,AL,35294-0110,Southern Association of Colleges and Schools Commission on Colleges,https://www.uab.edu/,https://uab.studentaidcalculator.com/survey.aspx,3,1,1,3,4,1,1,5,12,NULL,33.505697,-86.799345,0.7366,0.7366,13328,23.60797466,0.105086641,0.678591392,0.003167505,0.341223671
100690,2503400,25034,Amridge University,Montgomery,AL,36117-3553,Southern Association of Colleges and Schools Commission on Colleges,www.amridgeuniversity.edu/,www2.amridgeuniversity.edu:9091/,3,1,1,2,4,2,1,5,12,NULL,32.362609,-86.17401,NULL,NULL,365,33.6722973,0.236486487,0.10472973,0.040540541,0.5125
100706,105500,1055,University of Alabama in Huntsville,Huntsville,AL,35899,Southern Association of Colleges and Schools Commission on Colleges,www.uah.edu/,finaid.uah.edu/,3,1,1,3,4,1,1,5,12,NULL,34.724557,-86.640449,0.8257,0.8257,7785,22.72791963,0.100460444,0.748430306,PrivacySuppressed,0.310132159
100724,100500,1005,Alabama State University,Montgomery,AL,36104-0271,Southern Association of Colleges and Schools Commission on Colleges,www.alasu.edu/,www.alasu.edu/cost-aid/tuition-costs/net-price-calculator,3,1,1,3,4,1,1,5,12,NULL,32.364317,-86.295677,0.969,0.969,3750,20.13099042,0.00798722,0.892571885,PrivacySuppressed,0.343434343
100751,105100,1051,The University of Alabama,Tuscaloosa,AL,35487-0100,Southern Association of Colleges and Schools Commission on Colleges,www.ua.edu/,financialaid.ua.edu/net-price-calculator/,3,1,1,3,4,1,1,5,12,NULL,33.211875,-87.545978,0.8268,0.8268,31900,21.1377014,0.053705693,0.857035446,0.003974221,0.225712689
100760,100700,1007,Central Alabama Community College,Alexander City,AL,35010,Southern Association of Colleges and Schools Commission on Colleges,www.cacc.edu/,https://www.cacc.edu/net-price-calculator/,2,1,1,2,2,1,1,5,32,NULL,32.92478,-85.945266,NULL,NULL,1201,23.07102804,0.096261682,0.694392523,PrivacySuppressed,0.549676026
100812,100800,1008,Athens State University,Athens,AL,35611,Southern Association of Colleges and Schools Commission on Colleges,www.athens.edu/,www.athens.edu/financial-aid/net-price-calculator/,3,1,1,3,4,1,1,5,31,NULL,34.806793,-86.964698,NULL,NULL,2677,30.38476563,0.361328125,0.278645833,PrivacySuppressed,0.477496484
100830,831000,8310,Auburn University at Montgomery,Montgomery,AL,36117-3596,Southern Association of Colleges and Schools Commission on Colleges,www.aum.edu/,www.aum.edu/current-students/financial-information/net-price-calculator,3,1,1,3,4,1,1,5,12,NULL,32.36736,-86.177544,0.9044,0.9044,4407,22.19980411,0.072967679,0.772771792,0.00489716,0.38189609
100858,100900,1009,Auburn University,Auburn,AL,36849,Southern Association of Colleges and Schools Commission on Colleges,www.auburn.edu/,https://www.auburn.edu/admissions/costcalc/freshman.html,3,1,1,3,4,1,1,5,13,NULL,32.599378,-85.488258,0.8067,0.8067,24209,20.51679587,0.022261976,0.914132379,0.002385212,0.172647119
100937,101200,1012,Birmingham-Southern College,Birmingham,AL,35254,Southern Association of Colleges and Schools Commission on Colleges,www.bsc.edu/,www.bsc.edu/fp/np-calculator.cfm,3,1,1,3,3,2,1,5,12,NULL,33.513774,-86.850552,0.5381,0.5381,1205,19.64479638,PrivacySuppressed,0.968325792,PrivacySuppressed,0.172494173
101028,1218200,12182,Chattahoochee Valley Community College,Phenix City,AL,36869,Southern Association of Colleges and Schools Commission on Colleges,www.cv.edu/,www.cv.edu/about/consumer-information/,2,1,1,2,2,1,1,5,41,NULL,32.42391,-85.031485,NULL,NULL,1394,24.81025641,0.190598291,0.512820513,0.01025641,0.430267062
101116,1303906,13039,South University-Montgomery,Montgomery,AL,36116,Southern Association of Colleges and Schools Commission on Colleges,"www.southuniversity.edu/montgomery#location=Montgomery, AL",www.southuniversity.edu/montgomery/net-price-calculator,3,0,9,3,4,3,1,5,12,NULL,32.342684,-86.216488,NULL,NULL,251,30.00184319,0.236707784,0.215156671,0.016234227,0.472288337
101143,101500,1015,Enterprise State Community College,Enterprise,AL,36330-1300,Southern Association of Colleges and Schools Commission on Colleges,www.escc.edu/,https://www.escc.edu/netprice/npcalc.htm,2,1,1,1,2,1,1,5,32,NULL,31.297496,-85.836956,NULL,NULL,1332,23.94881517,0.121327014,0.602843602,0.011374408,0.421891605
101161,106000,1060,Coastal Alabama Community College,Bay Minette,AL,36507-2698,Southern Association of Colleges and Schools Commission on Colleges,www.coastalalabama.edu/,www.coastalalabama.edu/about/consumer_information/net_price_calculator/,2,1,1,2,2,1,1,5,32,NULL,30.851343,-87.778193,NULL,NULL,5508,23.5010648,0.095527837,0.661393368,0.004563432,0.43511965
101189,100300,1003,Faulkner University,Montgomery,AL,36109-3390,Southern Association of Colleges and Schools Commission on Colleges,www.faulkner.edu/,www.faulkner.edu/net-price-calculator/,3,1,1,3,4,2,1,5,12,NULL,32.384181,-86.21641,0.7833,0.7833,1928,28.26047565,0.167610419,0.388448471,PrivacySuppressed,0.430031949
101240,101700,1017,Gadsden State Community College,Gadsden,AL,35903,Southern Association of Colleges and Schools Commission on Colleges,www.gadsdenstate.edu/,www.gadsdenstate.edu/admissions-aid/net-price-calculator.cms,1,1,1,2,2,1,1,5,13,NULL,33.994001,-85.991438,NULL,NULL,3968,23.64507772,0.123612139,0.560695781,0.006661732,0.514954486
101277,4187200,41872,New Beginning College of Cosmetology,Albertville,AL,35951,National Accrediting Commission of Career Arts and Sciences,www.nbccosmetology.com/,nbccosmetology.com/wp-content/themes/nbc/nbc_zonemap/,1,1,1,1,1,3,1,5,32,NULL,34.27871,-86.196931,NULL,NULL,83,23.46017699,0.185840708,0.486725664,PrivacySuppressed,0.5
101286,101800,1018,George C Wallace Community College-Dothan,Dothan,AL,36303-9234,Southern Association of Colleges and Schools Commission on Colleges,www.wallace.edu/,www.wallace.edu/npcalc/,2,1,1,1,2,1,1,5,13,NULL,31.315274,-85.465836,NULL,NULL,3649,23.86608376,0.125172573,0.579843534,0.004601933,0.485153765
101295,787100,7871,George C Wallace State Community College-Hanceville,Hanceville,AL,35077-2000,Southern Association of Colleges and Schools Commission on Colleges,www.wallacestate.edu/,www.wallacestate.edu/Financial-Aid/Net-Price-Calculator,2,1,1,1,2,1,1,5,32,NULL,34.072439,-86.781935,NULL,NULL,4429,23.44760433,0.142503864,0.654404946,0.004018547,0.498813157
101301,569900,5699,George C Wallace State Community College-Selma,Selma,AL,36703-2808,Southern Association of Colleges and Schools Commission on Colleges,www.wccs.edu/,img.wccs.edu/files/finaid/NetPriceCalculator (6)/npcalc.htm,2,1,1,2,2,1,1,5,32,NULL,32.445917,-87.013294,NULL,NULL,1034,22.87099567,0.053679654,0.686580087,0.011255411,0.512588117
101365,962107,9621,Herzing University-Birmingham,Birmingham,AL,35209,Higher Learning Commission,https://www.herzing.edu/,https://www.herzing.edu/tuition-financial-aid/net-price-calculator,2,0,9,1,4,2,1,5,21,NULL,33.468466,-86.832465,0.7826,0.8312,565,31.28994083,0.231272819,0.140752864,0.009316379,0.520903265
101435,101900,1019,Huntingdon College,Montgomery,AL,36106-2148,Southern Association of Colleges and Schools Commission on Colleges,www.huntingdon.edu/,hawk.huntingdon.edu/oiac/netpricecalculator/index.html,3,1,1,3,3,2,1,5,12,NULL,32.351034,-86.284366,0.5929,0.5929,1007,23.01775148,0.082840237,0.778106509,PrivacySuppressed,0.3456
101453,2199700,21997,Heritage Christian University,Florence,AL,35630-9977,Association for Bibical Higher Educaiton,www.hcu.edu/,www.hcu.edu/netpricecalculator/,3,1,1,3,4,2,1,5,13,NULL,34.856153,-87.663051,0.2353,0.2353,59,28.72,0.56,PrivacySuppressed,PrivacySuppressed,PrivacySuppressed
101462,526000,5260,J. F. Drake State Community and Technical College,Huntsville,AL,35811,Southern Association of Colleges and Schools Commission on Colleges,https://www.drakestate.edu/,https://www.drakestate.edu/admissions/tuition-fees/net-price-calculator,1,1,1,1,2,1,1,5,12,NULL,34.771858,-86.572885,NULL,NULL,649,27.25490196,0.123680241,0.41025641,0.019607843,0.589965398
101471,3002500,30025,J F Ingram State Technical College,Deatsville,AL,36022,Council on Occupational Education,www.istc.edu/,istc.edu/NetPrice/,NULL,1,1,1,1,1,1,5,21,NULL,32.582312,-86.392369,NULL,NULL,485,36.40366973,0.146788991,PrivacySuppressed,PrivacySuppressed,0.491803279
101480,102000,1020,Jacksonville State University,Jacksonville,AL,36265,Southern Association of Colleges and Schools Commission on Colleges,www.jsu.edu/,www.jsu.edu/finaid/,3,1,1,3,4,1,1,5,23,NULL,33.822938,-85.765321,0.5479,0.5479,6743,22.62058319,0.096397942,0.754373928,PrivacySuppressed,0.36377025
101505,102200,1022,Jefferson State Community College,Birmingham,AL,35215-3098,Southern Association of Colleges and Schools Commission on Colleges,www.jeffersonstate.edu/,www.jeffersonstate.edu/financial-aid/net-price-calculator/,2,1,1,2,2,1,1,5,12,NULL,33.652535,-86.707233,NULL,NULL,6548,24.41823588,0.133795838,0.580773043,0.005203172,0.450290778
101514,101300,1013,John C Calhoun State Community College,Tanner,AL,35671,Southern Association of Colleges and Schools Commission on Colleges,https://calhoun.edu/,https://calhoun.edu/student-services/financial-aid/net-price-calculator/,2,1,1,1,2,1,1,5,41,NULL,34.645844,-86.949674,NULL,NULL,7728,23.85665216,0.137852072,0.630180902,0.005266774,0.455343703
101541,102300,1023,Judson College,Marion,AL,36756,Southern Association of Colleges and Schools Commission on Colleges,www.judson.edu/,www.judson.edu/net-price-calculator/,3,1,1,3,3,2,1,5,43,NULL,32.629253,-87.315206,0.3724,0.3724,245,28.40648379,0.209476309,0.369077307,PrivacySuppressed,0.413793103
101569,105900,1059,Lawson State Community College,Birmingham,AL,35221-1717,Southern Association of Colleges and Schools Commission on Colleges,www.lawsonstate.edu/,www.lawsonstate.edu/disclosure_and_consumer_information/general_institutional_information/net_price_calculator.aspx,1,1,1,1,2,1,1,5,12,NULL,33.450814,-86.888844,NULL,NULL,3047,23.38402889,0.04975923,0.643258427,0.004012841,0.474723158
101587,102400,1024,University of West Alabama,Livingston,AL,35470,Southern Association of Colleges and Schools Commission on Colleges,www.uwa.edu/,secure.uwa.edu/calculator/,3,1,1,3,4,1,1,5,43,NULL,32.588132,-88.186329,0.3493,0.3493,2235,22.25948276,0.044827586,0.781896552,PrivacySuppressed,0.403210576
101602,898800,8988,Lurleen B Wallace Community College,Andalusia,AL,36420-1224,Southern Association of Colleges and Schools Commission on Colleges,https://www.lbwcc.edu/,https://www.lbwcc.edu/financial-aid/net-price-calculator,2,1,1,2,2,1,1,5,41,NULL,31.322947,-86.452262,NULL,NULL,1204,22.77819199,0.120223672,0.674743709,PrivacySuppressed,0.520342612
101648,102600,1026,Marion Military Institute,Marion,AL,36756-3207,Southern Association of Colleges and Schools Commission on Colleges,www.marionmilitary.edu/,marionmilitary.edu/calculator/,2,1,1,2,2,1,1,5,43,NULL,32.623734,-87.322041,0.5761,0.5761,406,19.67021277,PrivacySuppressed,0.824468085,PrivacySuppressed,0.233802817
101675,102800,1028,Miles College,Fairfield,AL,35064-2621,Southern Association of Colleges and Schools Commission on Colleges,www.miles.edu/,https://miles.studentaidcalculator.com/survey.aspx,3,1,1,3,3,2,1,5,21,NULL,33.482442,-86.908751,NULL,NULL,1452,21.32274011,0.01059322,0.826977401,PrivacySuppressed,0.416458853
101693,102900,1029,University of Mobile,Mobile,AL,36613-2842,Southern Association of Colleges and Schools Commission on Colleges,www.umobile.edu/,umobile.edu/financial-aid/cost-calculator/,3,1,1,3,4,2,1,5,41,NULL,30.793247,-88.128934,0.4566,0.4566,1192,23.91798942,0.103174603,0.673280423,PrivacySuppressed,0.324285714
101709,100400,1004,University of Montevallo,Montevallo,AL,35115-6000,Southern Association of Colleges and Schools Commission on Colleges,www.montevallo.edu/,https://www.montevallo.edu/NetPriceCalculator/,3,1,1,3,4,1,1,5,21,NULL,33.10625,-86.865099,0.532,0.532,2200,21.02364532,0.039408867,0.856157636,PrivacySuppressed,0.325237592
101736,569700,5697,Northwest-Shoals Community College,Muscle Shoals,AL,35661,Southern Association of Colleges and Schools Commission on Colleges,https://www.nwscc.edu/,www.nwscc.edu/about-nw-scc/college-departments/student-services/financial-aid/future-students-financial-aid-calculator,2,1,1,1,2,1,1,5,13,NULL,34.739788,-87.678089,NULL,NULL,2537,23.10276297,0.137663597,0.65681047,PrivacySuppressed,0.514111788
101879,101600,1016,University of North Alabama,Florence,AL,35632-0001,Southern Association of Colleges and Schools Commission on Colleges,www.una.edu/,studentnpc.collegeboard.org/,3,1,1,3,4,1,1,5,13,NULL,34.806738,-87.681361,0.8878,0.8878,5513,21.4253096,0.05379257,0.832043344,PrivacySuppressed,0.36326024
101897,103100,1031,Northeast Alabama Community College,Rainsville,AL,35986,Southern Association of Colleges and Schools Commission on Colleges,https://www.nacc.edu/,https://www.nacc.edu/Content/Uploads/nacc.edu/files/Financial Aid/net-price-calc/npcalc.htm,1,1,1,1,2,1,1,5,42,NULL,34.545471,-85.911664,NULL,NULL,1975,22.9963477,0.15339664,0.65522279,PrivacySuppressed,0.58277592
101912,103300,1033,Oakwood University,Huntsville,AL,35896,Southern Association of Colleges and Schools Commission on Colleges,https://www2.oakwood.edu/,https://oakwood.studentaidcalculator.com/,3,1,1,3,4,2,1,5,12,NULL,34.756344,-86.652705,0.6473,0.6473,1442,21.73015873,0.042735043,0.820512821,PrivacySuppressed,0.17623498
101994,569200,5692,Reid State Technical College,Evergreen,AL,36401,Council on Occupational Education,www.rstc.edu/,images.pcmac.org/Uploads/ReidStateTech/ReidStateTech/Divisions/DocumentsCategories/Documents/index_{SIS703AD5AB07EA}.html,1,1,1,1,2,1,1,5,41,NULL,31.460265,-86.964797,NULL,NULL,327,25.61852861,0.111716621,0.422343324,PrivacySuppressed,0.590322581
102030,103000,1030,Bishop State Community College,Mobile,AL,36603-5898,Southern Association of Colleges and Schools Commission on Colleges,www.bishop.edu/,https://www.bishop.edu/calculator/index.htm,1,1,1,1,2,1,1,5,12,NULL,30.693972,-88.056982,NULL,NULL,2306,24.32590412,0.071068125,0.582842725,0.004625736,0.485397785
102049,103600,1036,Samford University,Birmingham,AL,35229-2240,Southern Association of Colleges and Schools Commission on Colleges,www.samford.edu/,https://samford.studentaidcalculator.com/survey.aspx,3,1,1,3,4,2,1,5,21,NULL,33.464128,-86.791799,0.8331,0.8331,3585,21.15186916,0.043224299,0.871495327,PrivacySuppressed,0.138055222
102058,4067300,40673,Selma University,Selma,AL,36701,NULL,selmauniversity.edu/,selmauniversity.edu/NetPriceCalculator/npcalc.htm,3,1,1,3,4,2,1,5,32,NULL,32.420387,-87.032392,NULL,NULL,310,27.30508475,0.091525424,0.46440678,PrivacySuppressed,0.619433198
102067,569100,5691,Shelton State Community College,Tuscaloosa,AL,35405-8522,Southern Association of Colleges and Schools Commission on Colleges,www.sheltonstate.edu/,apps.sheltonstate.edu/netpricecalculator/npcalc.htm,2,1,1,2,2,1,1,5,12,NULL,33.120531,-87.56148,NULL,NULL,3715,22.36853089,0.061352254,0.689899833,0.00542571,0.476304452
102076,103800,1038,Snead State Community College,Boaz,AL,35957-0734,Southern Association of Colleges and Schools Commission on Colleges,www.snead.edu/,www.snead.edu/financial_aid/net_price_calculator.aspx,2,1,1,2,2,1,1,5,32,NULL,34.201495,-86.169897,NULL,NULL,1745,23.65647365,0.14964216,0.632400781,PrivacySuppressed,0.53262519
102094,105700,1057,University of South Alabama,Mobile,AL,36688-0002,Southern Association of Colleges and Schools Commission on Colleges,www.southalabama.edu/,www.southalabama.edu/departments/finaid/netpricecalculator/,3,1,1,3,4,1,1,5,12,NULL,30.696033,-88.178711,0.7869,0.7869,9380,21.94726688,0.061950697,0.799356913,0.003215434,0.334257975
102234,104100,1041,Spring Hill College,Mobile,AL,36608-1791,Southern Association of Colleges and Schools Commission on Colleges,www.shc.edu/,https://shc.studentaidcalculator.com/survey.aspx,3,1,1,3,4,2,1,5,12,NULL,30.694751,-88.138199,0.4978,0.4978,1156,19.90214067,PrivacySuppressed,0.948012232,PrivacySuppressed,0.251633987
102270,104400,1044,Stillman College,Tuscaloosa,AL,35401,Southern Association of Colleges and Schools Commission on Colleges,https://stillman.edu/,https://stillman.edu/admissions/cost-of-attendance/,3,1,1,3,3,2,1,5,12,NULL,33.200006,-87.585278,0.3296,0.3296,830,21.02772964,PrivacySuppressed,0.864818024,PrivacySuppressed,0.410505837
102298,104600,1046,Talladega College,Talladega,AL,35160,Southern Association of Colleges and Schools Commission on Colleges,www.talladega.edu/,www.talladega.edu/netcalc/npcalc.htm,3,1,1,3,3,2,1,5,32,NULL,33.433472,-86.112704,NULL,NULL,1169,21.15163934,0.022540984,0.799180328,PrivacySuppressed,0.398058252
102313,573400,5734,H Councill Trenholm State Community College,Montgomery,AL,36108-3199,Southern Association of Colleges and Schools Commission on Colleges,www.trenholmstate.edu/,www.trenholmstate.edu/net-price-calculator/,1,1,1,1,2,1,1,5,12,NULL,32.350109,-86.343057,NULL,NULL,1741,24.24368049,0.092012134,0.554095046,0.012133468,0.430439952
102368,104700,1047,Troy University,Troy,AL,36082-0001,Southern Association of Colleges and Schools Commission on Colleges,www.troy.edu/,www.troy.edu/net-price-calculator/index-030119.html,3,1,4,3,4,1,1,5,33,NULL,31.800672,-85.957094,0.8757,0.8757,12595,25.74979691,0.169618197,0.553696182,0.006823721,0.389845712
102377,105000,1050,Tuskegee University,Tuskegee,AL,36088-1920,Southern Association of Colleges and Schools Commission on Colleges,www.tuskegee.edu/,npc.collegeboard.org/app/tuskegee?iframe=true,3,1,1,3,4,2,1,5,32,NULL,32.4309,-85.708492,0.5173,0.5173,2394,19.72319392,PrivacySuppressed,0.944486692,PrivacySuppressed,0.230643847
102395,2170600,21706,United States Sports Academy,Daphne,AL,36526-7055,Southern Association of Colleges and Schools Commission on Colleges,www.ussa.edu/,https://ussa.edu/admissions/net-price-calculator/,3,1,1,3,4,2,1,5,13,NULL,30.639329,-87.91163,NULL,NULL,211,31.90140845,0.422535211,0.197183099,PrivacySuppressed,PrivacySuppressed
102429,573300,5733,Bevill State Community College,Jasper,AL,35501,Southern Association of Colleges and Schools Commission on Colleges,www.bscc.edu/,www.bscc.edu/Content/Uploads/bscc.edu/files/BSCCNetPriceCalculator.html,2,1,1,1,2,1,1,5,32,NULL,33.836929,-87.266406,NULL,NULL,2695,23.36818632,0.127353816,0.602081269,PrivacySuppressed,0.530808366
102553,1146200,11462,University of Alaska Anchorage,Anchorage,AK,99508,Northwest Commission on Colleges and Universities,www.uaa.alaska.edu/,www.uaa.alaska.edu/financialaid/customcf/npcalc.htm,3,1,1,3,4,1,2,8,11,NULL,61.190163,-149.82619,0.8296,0.8296,9257,25.10750308,0.197539975,0.503567036,0.009840098,0.389193875
102580,884300,8843,Alaska Bible College,Palmer,AK,99645,Association for Bibical Higher Educaiton,www.akbible.edu/,www.akbible.edu/admissions/tuition-aid/net-price-calculator/,3,1,1,3,3,2,2,8,32,NULL,61.598553,-149.111972,NULL,NULL,30,24.6,PrivacySuppressed,PrivacySuppressed,PrivacySuppressed,PrivacySuppressed
102614,106300,1063,University of Alaska Fairbanks,Fairbanks,AK,99775,Northwest Commission on Colleges and Universities,www.uaf.edu/,uaf.edu/finaid/costs/net-price-calculator.php,3,1,1,3,4,1,2,8,23,NULL,64.85756,-147.823146,0.7599,0.7599,4410,25.45030882,0.250421112,0.469399214,0.01459854,0.398832685
102632,106500,1065,University of Alaska Southeast,Juneau,AK,99801-8697,Northwest Commission on Colleges and Universities,www.uas.alaska.edu/,uas.alaska.edu/apply/cost-calculator.html,3,1,1,1,4,1,2,8,33,NULL,58.384846,-134.638255,0.6057,0.6057,1156,26.9668616,0.214424951,0.417153996,PrivacySuppressed,0.395143488
102669,106100,1061,Alaska Pacific University,Anchorage,AK,99508,Northwest Commission on Colleges and Universities,www.alaskapacific.edu/,https://npc.collegeboard.org/student/app/alaskapacific,3,1,1,3,4,2,2,8,11,NULL,61.190968,-149.804168,0.8924,0.8924,318,25.58219178,0.157534247,0.54109589,PrivacySuppressed,PrivacySuppressed
102711,3160300,31603,Alaska Vocational Technical Center,Seward,AK,99664-0889,Council on Occupational Education,www.avtec.edu/,www.avtec.edu/book-page/net-price-calculator,1,1,1,1,1,1,2,8,43,NULL,60.110626,-149.444487,NULL,NULL,631,26.16853933,0.129213483,0.43258427,PrivacySuppressed,0.44137931
102845,2576900,25769,Charter College,Vancouver,WA,98683-7575,Accrediting Bureau of Health Education Schools,https://www.chartercollege.edu/,https://chartercollege.studentaidcalculator.com/survey.aspx,1,1,1,1,3,3,53,8,12,NULL,45.617798,-122.494766,NULL,NULL,2474,28.03274712,0.241560542,0.259753386,0.008287851,0.554040144
103501,2541000,25410,Alaska Career College,Anchorage,AK,99507-1033,Accrediting Commission of Career Schools and Colleges,www.alaskacareercollege.edu/,www.alaskacareercollege.edu/tuition-calculator,1,1,1,1,2,3,2,8,11,NULL,61.181443,-149.856954,NULL,NULL,361,27.03846154,0.229166667,0.291666667,0.020833333,0.476772616
103741,966403,9664,Empire Beauty School-Tucson,Tucson,AZ,85716,National Accrediting Commission of Career Arts and Sciences,www.empire.edu/,www.empire.edu/net-price-calculator,1,0,11,1,1,3,4,6,11,NULL,32.235657,-110.927187,NULL,NULL,106,25.78489245,0.114057029,0.377188594,0.008504252,0.569871795
103893,2100600,21006,Carrington College-Phoenix North,Phoenix,AZ,85051-4063,Western Association of Schools and Colleges Accrediting Commission for Community and Junior Colleges,https://carrington.edu/,https://carrington.edu/financial-aid/how-much-will-it-cost/,1,1,3,1,2,3,4,6,11,NULL,33.565758,-112.104601,NULL,NULL,1644,26.39643653,0.157238307,0.363028953,0.006013363,0.554835072
103945,3120300,31203,CollegeAmerica-Flagstaff,Flagstaff,AZ,86001,NULL,www.collegeamerica.edu/,https://www.collegeamerica.edu/net-price-calculator,2,1,3,2,2,2,4,6,13,NULL,35.194495,-111.657673,NULL,NULL,36,27.92113565,0.191377497,0.324921136,0.014721346,0.584527221
103954,886400,8864,Arizona Academy of Beauty-East,Tucson,AZ,85712,National Accrediting Commission of Career Arts and Sciences,www.arizonaacademy.com/,www.arizonaacademy.com/net-price-calculator.html,1,1,1,1,1,3,4,6,11,NULL,32.237253,-110.872305,NULL,NULL,40,28.58035714,0.258928571,0.223214286,PrivacySuppressed,0.505376344
103963,2306807,23068,Platt College-Arizona Automotive Institute Arizona,Glendale,AZ,85301-3579,Accrediting Commission of Career Schools and Colleges,www.aai.edu/,www.aai.edu/NetPriceCalculatorAAI/npcalc.htm,1,0,23,1,1,3,4,6,21,NULL,33.537249,-112.157344,NULL,NULL,490,28.2341119,0.24551874,0.283903676,0.021908383,0.586231884
104090,2218800,22188,Brookline College-Phoenix,Phoenix,AZ,85021,Accrediting Bureau of Health Education Schools,www.brooklinecollege.edu/,brooklinecollege.studentaidcalculator.com/survey.aspx,1,1,4,1,4,3,4,6,11,NULL,33.566102,-112.112473,NULL,NULL,1437,29.24475777,0.216196674,0.230296457,0.006869125,0.559032717
104151,108100,1081,Arizona State University Campus Immersion,Tempe,AZ,85287,Higher Learning Commission,www.asu.edu/,https://students.asu.edu/financialaid/net-price,3,1,13,3,4,1,4,6,12,NULL,33.417721,-111.934383,0.8647,0.8189,44038,24.7478311,0.150779706,0.569569515,0.006534153,0.381317921
104160,107100,1071,Arizona Western College,Yuma,AZ,85365-8834,Higher Learning Commission,www.azwestern.edu/,https://schedule.azwestern.edu/npcalc/index.html,1,1,1,1,2,1,4,6,13,NULL,32.689306,-114.495968,NULL,NULL,6856,23.21819527,0.147682446,0.669871795,0.006410256,0.610764687
104179,108300,1083,University of Arizona,Tucson,AZ,85721-0066,Higher Learning Commission,https://www.arizona.edu/,https://arizona.studentaidcalculator.com/survey.aspx,3,1,2,3,4,1,4,6,11,NULL,32.232672,-110.950815,0.8459,0.8459,33715,21.3087377,0.044080495,0.837529402,0.003136162,0.314072957
104188,2491500,24915,Southwest University of Visual Arts-Tucson,Tucson,AZ,85701,NULL,www.suva.edu/,www.suva.edu/NetPriceCalculator/Tucson/npcalc.htm,3,1,2,3,4,2,4,6,11,NULL,32.221702,-110.970838,NULL,NULL,92,23.59405941,0.099009901,0.683168317,PrivacySuppressed,0.4
104346,728300,7283,Central Arizona College,Coolidge,AZ,85128-9030,Higher Learning Commission,www.centralaz.edu/,centralaz.edu/resources/netpricecalc.html,1,1,1,1,2,1,4,6,41,NULL,32.957092,-111.652501,NULL,NULL,4777,25.70838926,0.179865772,0.538926175,0.008389262,0.498192045
104391,2280500,22805,Charles of Italy Beauty College,Lake Havasu City,AZ,86403,National Accrediting Commission of Career Arts and Sciences,www.charlesofitaly.edu/,www.charlesofitaly.edu/,1,1,1,1,1,3,4,6,13,NULL,34.477485,-114.332686,NULL,NULL,58,28.34210526,0.25,0.27631579,PrivacySuppressed,0.492307692
104425,107200,1072,Cochise County Community College District,Sierra Vista,AZ,85635-2317,Higher Learning Commission,https://www.cochise.edu/,https://www.cochise.edu/netprice/npcalc.htm,2,1,1,2,2,1,4,6,13,NULL,31.564597,-110.246946,NULL,NULL,3387,24.1831972,0.172695449,0.578179697,0.008168028,0.486238532
104434,1054207,10542,Empire Beauty School-Flagstaff,Flagstaff,AZ,86004,NULL,www.empire.edu/,www.empire.edu/net-price-calculator,1,0,14,1,1,3,4,6,13,NULL,35.197151,-111.625936,NULL,NULL,26,25.59180918,0.114311431,0.381638164,0.0090009,0.501391208
104443,1054208,10542,Empire Beauty School-Chandler,Chandler,AZ,85224,National Accrediting Commission of Career Arts and Sciences,www.empire.edu/,www.empire.edu/net-price-calculator,1,0,14,1,1,3,4,6,11,NULL,33.347586,-111.860423,NULL,NULL,59,25.59180918,0.114311431,0.381638164,0.0090009,0.501391208
104568,1085800,10858,Avalon School of Cosmetology-Mesa,Mesa,AZ,85210,National Accrediting Commission of Career Arts and Sciences,avalon.edu/locations/mesa-az/,avalon.edu/financial-aid/net-price-calculator-2-2/,1,1,3,1,1,3,4,6,11,NULL,33.376583,-111.858305,NULL,NULL,284,24.92873741,0.180480248,0.47095275,0.010069713,0.488605287
104577,107300,1073,Eastern Arizona College,Thatcher,AZ,85552-0769,Higher Learning Commission,www.eac.edu/,eac.edu/Student_Services/Financial_Aid/Net_Price/default.shtm,1,1,1,1,2,1,4,6,33,NULL,32.843664,-109.76234,NULL,NULL,4642,24.15144766,0.138084633,0.553080921,PrivacySuppressed,0.39347079
104586,147902,1479,Embry-Riddle Aeronautical University-Prescott,Prescott,AZ,86301-3720,Southern Association of Colleges and Schools Commission on Colleges,prescott.erau.edu/,prescott.erau.edu/financial-aid/net-price-calculator,3,0,2,3,4,2,4,6,41,NULL,34.616766,-112.449741,0.657,0.6234,2885,25.38523146,0.335415666,0.441774788,0.019541887,0.355459272
104665,2533200,25332,The School of Architecture,Paradise Valley,AZ,85253,Higher Learning Commission,https://theschoolofarchitecture.edu/,https://theschoolofarchitecture.edu/financial-aid,3,1,1,4,4,2,4,6,21,NULL,33.566649,-111.941953,NULL,NULL,NULL,NULL,NULL,NULL,NULL,NULL
104708,107600,1076,Glendale Community College,Glendale,AZ,85302,Higher Learning Commission,www.gccaz.edu/,https://www.maricopa.edu/npc/gcc/npcalc.htm,1,1,1,1,2,1,4,6,21,NULL,33.570226,-112.190735,NULL,NULL,14134,24.81320098,0.132009798,0.564135619,0.005930128,0.529686243
104717,107400,1074,Grand Canyon University,Phoenix,AZ,85017,Higher Learning Commission,www.gcu.edu/,https://www.gcu.edu/tuition-and-financial-aid,3,1,1,3,4,3,4,6,11,NULL,33.513231,-112.129929,0.7694,0.7694,57629,31.01565192,0.31784319,0.252881652,0.008590357,0.474408053
105145,830300,8303,GateWay Community College,Phoenix,AZ,85034,Higher Learning Commission,www.gatewaycc.edu/,www.gatewaycc.edu/enroll/paying-for-college,1,1,2,1,2,1,4,6,11,NULL,33.449686,-111.997077,NULL,NULL,4162,27.91328671,0.18041958,0.351398601,0.005244755,0.56622807
105154,107700,1077,Mesa Community College,Mesa,AZ,85202,Higher Learning Commission,www.mesacc.edu/,www.mesacc.edu/students/net-price-calculator.html,2,1,1,1,2,1,4,6,11,NULL,33.390323,-111.871255,NULL,NULL,16010,25.26604313,0.131073006,0.507794232,0.007144713,0.457851491
105206,1186400,11864,Mohave Community College,Kingman,AZ,86409-1238,Higher Learning Commission,https://www.mohave.edu/,https://www.mohave.edu/assets/NetPriceCalculator1415/npcalc.htm,2,1,1,1,2,1,4,6,41,NULL,35.270996,-114.029838,NULL,NULL,2888,27.52591284,0.22614841,0.406360424,0.020023557,0.536089699
105215,2100500,21005,Universal Technical Institute of Arizona Inc-Motorcycle Mechanics Institute Division,Phoenix,AZ,85027,Accrediting Commission of Career Schools and Colleges,www.uti.edu/,www.uti.edu/admissions/tuition,1,1,3,1,1,3,4,6,11,NULL,33.684428,-112.121336,NULL,NULL,840,25.00465503,0.154613466,0.536159601,0.031255195,0.51090218
105297,824600,8246,Dine College,Tsaile,AZ,86556,Higher Learning Commission,https://www.dinecollege.edu/,hooghan.dinecollege.edu/NetPriceCalculator/npcalc.htm,2,1,1,2,3,1,4,6,43,NULL,36.293328,-109.21684,NULL,NULL,1377,24.19835841,0.076607387,0.562243502,PrivacySuppressed,0.431893688
105330,108200,1082,Northern Arizona University,Flagstaff,AZ,86011-4092,Higher Learning Commission,https://nau.edu/,https://www7.nau.edu/finaid/NetPriceCalculator/,3,1,1,3,4,1,4,6,13,NULL,35.188449,-111.653724,0.8489,0.8489,26135,24.12509743,0.126656274,0.658144973,0.00537802,0.386862576
105349,1186200,11862,Northland Pioneer College,Holbrook,AZ,86025-0610,Higher Learning Commission,www.npc.edu/,www.npc.edu/financial-aid-scholarships/net-price-calculator,1,1,1,1,2,1,4,6,41,NULL,34.93031,-110.142199,NULL,NULL,1288,26.97667639,0.199708455,0.37755102,0.017492711,0.466437177
105367,193701,1937,Ottawa University-Phoenix,Phoenix,AZ,85021,Higher Learning Commission,www.ottawa.edu/,www.ottawa.edu/resources/netpricecalculator/npcalc.htm,3,0,5,3,4,2,4,6,11,NULL,33.572173,-112.113001,NULL,0.2412,383,29.53267974,0.284313726,0.350326797,0.013071895,0.400868307
105428,107800,1078,Phoenix College,Phoenix,AZ,85013,Higher Learning Commission,www.phoenixcollege.edu/,www.phoenixcollege.edu/tuition-and-fees/net-price-calculators,2,1,1,2,2,1,4,6,11,NULL,33.481361,-112.088293,NULL,NULL,8866,25.67357708,0.121748963,0.487561251,0.006596306,0.61575524
105525,726600,7266,Pima Community College,Tucson,AZ,85709-1275,Higher Learning Commission,www.pima.edu/,pima.edu/paying-for-college/tuition-fees/net-price-calculator/npc.htm,1,1,1,1,2,1,4,6,11,NULL,32.222125,-110.886659,NULL,NULL,17141,24.66969086,0.121079749,0.565524194,0.009744624,0.477607973
105534,2217100,22171,Pima Medical Institute-Tucson,Tucson,AZ,85712,Accrediting Bureau of Health Education Schools,pmi.edu/,https://secure.pmi.edu/npcalc/,1,1,14,1,3,3,4,6,11,NULL,32.248067,-110.878783,NULL,NULL,1931,26.64197627,0.203443729,0.375164818,0.008686884,0.505392912
105543,2217103,22171,Pima Medical Institute-Albuquerque,Albuquerque,NM,87110,NULL,pmi.edu/,https://secure.pmi.edu/npcalc/,1,0,14,1,2,3,35,6,11,NULL,35.104855,-106.59488,NULL,NULL,708,26.64197627,0.203443729,0.375164818,0.008686884,0.505392912
105589,2065300,20653,Prescott College,Prescott,AZ,86301,Higher Learning Commission,https://www.prescott.edu/,app.prescott.edu/net-price-calculator/,3,1,1,3,4,2,4,6,13,NULL,34.5452,-112.477185,0.9741,0.9741,465,27.98067633,0.149758454,0.45410628,PrivacySuppressed,0.231958763
105659,1168900,11689,Refrigeration School Inc,Phoenix,AZ,85034-1816,Accrediting Commission of Career Schools and Colleges,https://www.rsi.edu/,https://www.rsi.edu/tuition-planning/tuition-calculator/,1,1,1,1,2,3,4,6,11,NULL,33.448692,-111.989357,NULL,NULL,903,30.48436019,0.2492891,0.199052133,0.042654028,0.522565321
105668,2177500,21775,Rio Salado College,Tempe,AZ,85281,Higher Learning Commission,www.rio.maricopa.edu/,www.riosalado.edu/cashier/Pages/TuitionCalculator.aspx,1,1,1,1,2,1,4,6,12,NULL,33.413309,-111.97417,NULL,NULL,5829,30.17698328,0.254713625,0.188900747,0.009960868,0.473234743
105677,2113800,21138,Roberto-Venn School of Luthiery,Phoenix,AZ,85007,Accrediting Commission of Career Schools and Colleges,www.roberto-venn.com/,roberto-venn.com/guitar-making-repair-program/net-price-calculator/,1,1,1,1,1,3,4,6,11,NULL,33.45489,-112.086161,NULL,NULL,19,27.5,PrivacySuppressed,0.444444444,PrivacySuppressed,PrivacySuppressed
105747,830400,8304,Scottsdale Community College,Scottsdale,AZ,85256,Higher Learning Commission,www.scottsdalecc.edu/,https://www.scottsdalecc.edu/students/student-business-services/net-price-calculator,2,1,1,2,2,1,4,6,41,NULL,33.51135,-111.885186,NULL,NULL,5688,25.55099648,0.096131301,0.511137163,0.009378664,0.40233498
105792,2146600,21466,South Mountain Community College,Phoenix,AZ,85042,Higher Learning Commission,www.southmountaincc.edu/,www.southmountaincc.edu/disclosures/,2,1,1,2,2,1,4,6,11,NULL,33.382406,-112.032635,NULL,NULL,3118,25.0490968,0.094025012,0.557202409,0.007410838,0.589511754
105899,711300,7113,Arizona Christian University,Glendale,AZ,85306-3216,Higher Learning Commission,arizonachristian.edu/,arizonachristian.edu/admissions/financial-aid/calculator,3,1,1,3,3,2,4,6,21,NULL,33.622952,-112.181776,0.6793,0.6793,803,22.75910931,0.064777328,0.777327935,PrivacySuppressed,0.382550336
106041,822100,8221,Universal Technical Institute of Arizona Inc,Avondale,AZ,85323,Accrediting Commission of Career Schools and Colleges,www.uti.edu/,www.uti.edu/admissions/tuition,1,1,6,2,2,3,4,6,22,NULL,33.453005,-112.288123,NULL,NULL,1873,22.80322043,0.108828429,0.668184342,0.018212104,0.548605358
106111,945915,9459,Empire Beauty School-NW Phoenix,Phoenix,AZ,85051,National Accrediting Commission of Career Arts and Sciences,www.empire.edu/,www.empire.edu/net-price-calculator,1,0,10,1,1,3,4,6,11,NULL,33.538093,-112.118168,NULL,NULL,78,26.16532041,0.133548735,0.37641357,0.008616047,0.552452316
106148,107900,1079,Yavapai College,Prescott,AZ,86301,Higher Learning Commission,www.yc.edu/,www.yc.edu/webtools/forms/netpricecalc/,1,1,1,1,2,1,4,6,13,NULL,34.547495,-112.453395,NULL,NULL,4390,27.90088198,0.193616128,0.388072239,0.008819824,0.5
106245,110100,1101,University of Arkansas at Little Rock,Little Rock,AR,72204,Higher Learning Commission,ualr.edu/www/,ualr.edu/finaid/npc/npcalc.htm,3,1,1,3,4,1,5,5,12,NULL,34.723254,-92.339778,0.6582,0.6582,5900,25.51552309,0.171145317,0.532220193,0.006000522,0.391040462
106263,110900,1109,University of Arkansas for Medical Sciences,Little Rock,AR,72205-7199,Higher Learning Commission,www.uams.edu/,studentfinancialservices.uams.edu/tuition-and-fees/,3,1,1,3,4,1,5,5,12,NULL,34.749048,-92.320046,NULL,NULL,649,28.42,0.29,0.3275,PrivacySuppressed,0.395027624
106306,108700,1087,Arkansas Baptist College,Little Rock,AR,72202-6068,Higher Learning Commission,www.arkansasbaptist.edu/,www.arkansasbaptist.edu/financial-aid/net-price-calculator/,2,1,1,3,3,2,5,5,12,NULL,34.734751,-92.290555,NULL,NULL,531,21.672,0.016,0.76,PrivacySuppressed,0.449528937
106315,3005100,30051,Arkansas Beauty School-Little Rock,Little Rock,AR,72209,National Accrediting Commission of Career Arts and Sciences,arkbeautyschool.com/,arkbeautyschool.com/,1,1,1,1,1,3,5,5,12,NULL,34.672171,-92.343366,NULL,NULL,8,28.24309392,0.138121547,0.182320442,PrivacySuppressed,0.554054054
106324,3997300,39973,Arkansas Beauty College,Russellville,AR,72801,Accrediting Commission of Career Schools and Colleges,https://www.arkansasbeautycollege.us/,arkbeautycollege.wixsite.com/netpricecalculator,1,1,1,1,1,3,5,5,33,NULL,35.27902,-93.135369,NULL,NULL,18,25.36363636,0.227272727,0.409090909,PrivacySuppressed,0.529411765
106342,108800,1088,Lyon College,Batesville,AR,72501,Higher Learning Commission,www.lyon.edu/,https://lyon.virtueanalytics.com/#!/home/npc,3,1,1,3,3,2,5,5,33,NULL,35.777619,-91.625354,0.444,0.444,650,19.92011019,PrivacySuppressed,0.931129477,PrivacySuppressed,0.3
106351,3023400,30234,Arkansas College of Barbering and Hair Design,North Little Rock,AR,72114,Accrediting Commission of Career Schools and Colleges,www.acbhd.edu/,www.acbhd.edu/,1,1,2,1,1,3,5,5,13,NULL,34.753843,-92.266429,NULL,NULL,82,28.01123596,0.078651685,0.258426966,PrivacySuppressed,0.618421053
106360,2363500,23635,Arthur's Beauty College,Fort Smith,AR,72901-3342,National Accrediting Commission of Career Arts and Sciences,www.arthursbeautycollege.com/,https://www.arthursbeautycollege.com/fort-smith.html,1,1,2,1,1,3,5,5,13,NULL,35.379955,-94.410967,NULL,NULL,32,25.57228916,0.259036145,0.313253012,PrivacySuppressed,0.542857143
106397,110800,1108,University of Arkansas,Fayetteville,AR,72701,Higher Learning Commission,https://www.uark.edu/,https://finaid.uark.edu/aid-calculator.php,3,1,1,3,4,1,5,5,13,NULL,36.070009,-94.176981,0.7709,0.7709,22766,21.28390724,0.055938159,0.856219255,0.002951511,0.259961487
106412,108600,1086,University of Arkansas at Pine Bluff,Pine Bluff,AR,71601,Higher Learning Commission,www.uapb.edu/,www.uapb.edu/admissions/net_price_calculator.aspx,3,1,1,3,4,1,5,5,13,NULL,34.244031,-92.018683,0.4394,0.4394,2333,21.15302491,0.026690392,0.849940688,PrivacySuppressed,0.367737526
106449,109100,1091,Arkansas State University-Beebe,Beebe,AR,72012-1000,Higher Learning Commission,www.asub.edu/,www.asub.edu/financial-aid/1718-files/npcalc.htm,1,1,1,1,2,1,5,5,31,NULL,35.074176,-91.895351,NULL,NULL,2367,23.77515118,0.178119846,0.609125893,PrivacySuppressed,0.456161864
106458,109000,1090,Arkansas State University,Jonesboro,AR,72401,Higher Learning Commission,www.astate.edu/,www.astate.edu/a/finaid/tuition-fees/net-price-calculator/index.dot,3,1,1,3,4,1,5,5,13,NULL,35.842388,-90.679988,0.7991,0.7991,8159,23.31908704,0.133139405,0.692548669,PrivacySuppressed,0.388266797
106467,108900,1089,Arkansas Tech University,Russellville,AR,72801-2222,Higher Learning Commission,www.atu.edu/,www.atu.edu/finaid/npcalc.htm,3,1,1,3,4,1,5,5,33,NULL,35.293237,-93.13562,0.9474,0.9474,7930,23.04162127,0.124210068,0.710394421,PrivacySuppressed,0.457478006
106485,108500,1085,University of Arkansas at Monticello,Monticello,AR,71656,Higher Learning Commission,www.uamont.edu/,uam-web2.uamont.edu/netprice/npcalc.htm,1,1,1,1,4,1,5,5,33,NULL,33.590909,-91.811153,NULL,NULL,2115,23.63097113,0.113910761,0.680839895,PrivacySuppressed,0.453397474
106494,2538500,25385,Arthur's Beauty College,Jacksonville,AR,72076,National Accrediting Commission of Career Arts and Sciences,arthursbeautycollege.com/,https://www.arthursbeautycollege.com/jacksonville.html,1,1,2,1,1,3,5,5,21,NULL,34.891572,-92.102579,NULL,NULL,32,26.15458937,0.256038647,0.328502416,PrivacySuppressed,0.460674157
106546,3105200,31052,Baptist Health College Little Rock,Little Rock,AR,72210-2827,Accrediting Bureau of Health Education Schools,https://www.bhclr.edu/,https://www.bhclr.edu/student-services/accounts/netprice/npcalc.htm,2,1,1,2,2,2,5,5,12,NULL,34.713115,-92.40692,1,1,616,26.0512,0.2288,0.3984,PrivacySuppressed,0.416955017
106625,2052200,20522,Black River Technical College,Pocahontas,AR,72455,Higher Learning Commission,www.blackrivertech.edu/,www.blackrivertech.org/financial-aid/net-price-calculator,1,1,1,1,2,1,5,5,41,NULL,36.239793,-90.951033,NULL,NULL,1155,24.77405405,0.208648649,0.526486487,PrivacySuppressed,0.480697385
106704,109200,1092,University of Central Arkansas,Conway,AR,72035-0001,Higher Learning Commission,www.uca.edu/,uca.edu/financialaid/financial-aid-net-price-calculator/,3,1,1,3,4,1,5,5,13,NULL,35.077945,-92.457672,0.9042,0.9042,8557,21.15254237,0.050110538,0.84131663,PrivacySuppressed,0.345958922
106713,109300,1093,Central Baptist College,Conway,AR,72034,Higher Learning Commission,www.cbc.edu/,www.cbc.edu/financial_aid/net_price_calculator.aspx,3,1,1,3,3,2,5,5,13,NULL,35.083838,-92.445021,0.4,0.4,600,24.79196218,0.165484634,0.628841608,PrivacySuppressed,0.345549738
106795,2220900,22209,Cossatot Community College of the University of Arkansas,De Queen,AR,71832,Higher Learning Commission,www.cccua.edu/,www.cccua.edu/pay-for-college/net-price-calculator,1,1,1,1,2,1,5,5,41,NULL,34.043389,-94.3673,NULL,NULL,979,23.24208566,0.145251397,0.612662942,PrivacySuppressed,0.586206897
106810,109500,1095,Crowley's Ridge College,Paragould,AR,72450,Higher Learning Commission,www.crc.edu/,crc.edu//financial_aid/netpricecalculator/netpricecalculator.html,3,1,1,3,3,2,5,5,41,NULL,36.064845,-90.584395,NULL,NULL,162,20.22875817,PrivacySuppressed,0.882352941,PrivacySuppressed,0.395683453
106883,1226000,12260,East Arkansas Community College,Forrest City,AR,72335-2204,Higher Learning Commission,https://www.eacc.edu/,https://www.eacc.edu/pages?id=100,1,1,1,1,2,1,5,5,32,NULL,35.041655,-90.767726,NULL,NULL,790,22.30588235,0.101176471,0.708235294,PrivacySuppressed,0.508287293
106892,2272400,22724,Eastern College of Health Vocations-Little Rock,Little Rock,AR,72205,Accrediting Bureau of Health Education Schools,www.easterncollege.edu/,www.https//easterncollege.edu/consumer-info/,1,1,2,1,1,3,5,5,12,NULL,34.75128,-92.341891,NULL,NULL,144,26.4084507,0.124119718,0.297535211,PrivacySuppressed,0.594218415
106908,3124900,31249,Paul Mitchell the School-Little Rock,North Little Rock,AR,72117,National Accrediting Commission of Career Arts and Sciences,paulmitchell.edu/littlerock,paulmitchell.edu/littlerock/programs/cosmetology,1,1,1,1,1,3,5,5,13,NULL,34.789913,-92.222202,NULL,NULL,359,24.19614711,0.187390543,0.448336252,PrivacySuppressed,0.456790124
106980,1210500,12105,National Park College,Hot Springs,AR,71913,Higher Learning Commission,www.np.edu/,https://np.edu/admissions/financial-aid/consumer-disclosures/index.html,2,1,1,1,2,1,5,5,23,NULL,34.512687,-93.119248,NULL,NULL,1967,25.58117326,0.178717599,0.495225102,PrivacySuppressed,0.456661316
106999,2073500,20735,University of Arkansas Community College-Batesville,Batesville,AR,72503-3350,Higher Learning Commission,www.uaccb.edu/,www.uaccb.edu/net-price-calculator/,1,1,1,1,2,1,5,5,33,NULL,35.792923,-91.615852,NULL,NULL,952,24.26237624,0.24009901,0.514851485,PrivacySuppressed,0.458571429
107044,109700,1097,Harding University,Searcy,AR,72149-5615,Higher Learning Commission,www.harding.edu/,www.harding.edu/admissions/npc.html,3,1,2,3,4,2,5,5,32,NULL,35.247386,-91.726143,0.6134,0.6134,3749,20.98695951,0.06108442,0.880576527,PrivacySuppressed,0.205479452
107071,109800,1098,Henderson State University,Arkadelphia,AR,71999-0001,Higher Learning Commission,https://www.hsu.edu/,https://www.hsu.edu/pages/future-students/financial-aid/net-price-calculator/,3,1,1,3,4,1,5,5,32,NULL,34.128155,-93.059703,0.7564,0.7564,2965,21.53536515,0.058079356,0.828637148,PrivacySuppressed,0.376738306
107080,109900,1099,Hendrix College,Conway,AR,72032-3080,Higher Learning Commission,www.hendrix.edu/,www.hendrix.edu/Admission/PriceCalculator/,3,1,1,3,4,2,5,5,13,NULL,35.101565,-92.443256,0.6996,0.6996,1104,19.43055556,PrivacySuppressed,0.976190476,PrivacySuppressed,0.192066806
107099,3007100,30071,Hot Springs Beauty College,Hot Springs,AR,71901,National Accrediting Commission of Career Arts and Sciences,hotspringsbeautycollege.com/,hotspringsbeautycollege.com/disclosures,1,1,1,1,1,3,5,5,13,NULL,34.496057,-93.037277,NULL,NULL,57,25.54385965,0.175438597,0.333333333,PrivacySuppressed,0.446808511
107123,2330800,23308,Jefferson Regional Medical Center School of Nursing,Pine Bluff,AR,71603,Accrediting Bureau of Health Education Schools,www.jrmc.org/,www.jrmc.org/schoolofnursing/Calculator/npcalc.htm,1,1,1,2,2,2,5,5,13,NULL,34.187831,-92.018045,NULL,NULL,56,26.06976744,0.162790698,0.430232558,PrivacySuppressed,PrivacySuppressed
107141,110000,1100,John Brown University,Siloam Springs,AR,72761,Higher Learning Commission,www.jbu.edu/,info.eaglenet.jbu.edu/npc,3,1,1,3,4,2,5,5,32,NULL,36.189812,-94.560283,0.7577,0.7577,1447,24.15714286,0.184415584,0.680519481,PrivacySuppressed,0.288828338
107220,2341700,23417,Career Academy of Hair Design,Springdale,AR,72764-7128,National Accrediting Commission of Career Arts and Sciences,www.beautynwa.com/,www.beautynwa.com/npcalc/,1,1,5,1,1,3,5,5,13,NULL,36.167605,-94.12947,NULL,NULL,184,25.75561798,0.22752809,0.398876405,PrivacySuppressed,0.608843537
107293,1074100,10741,Academy of Salon and Spa,Fort Smith,AR,72901,National Accrediting Commission of Career Arts and Sciences,www.academysalonspa.com/,www.academysalonspa.com/,1,1,1,1,1,3,5,5,13,NULL,35.38097,-94.41616,NULL,NULL,63,26.57264957,0.282051282,0.324786325,PrivacySuppressed,0.505050505
107318,2348200,23482,Arkansas State University Mid-South,West Memphis,AR,72301-3829,Higher Learning Commission,www.asumidsouth.edu/,www.asumidsouth.edu/NetPriceCalculator16/npcalc.htm,1,1,1,1,2,1,5,5,21,NULL,35.145736,-90.22285,NULL,NULL,589,24.96578947,0.1,0.546052632,PrivacySuppressed,0.594427245
107327,1286000,12860,Arkansas Northeastern College,Blytheville,AR,72316-1109,Higher Learning Commission,www.anc.edu/,www.anc.edu/netprice/index.html,1,1,1,1,2,1,5,5,41,NULL,35.898597,-89.921005,NULL,NULL,918,23.82154341,0.122186495,0.594855306,PrivacySuppressed,0.589453861
107442,2284200,22842,New Tyler Barber College Inc,North Little Rock,AR,72114-4973,Accrediting Commission of Career Schools and Colleges,newtylerbarbercollege.edu/,https://www.newtylerbarbercollege.edu/prospective-students/net-price-calculator/,1,1,1,1,1,3,5,5,13,NULL,34.760085,-92.254171,NULL,NULL,30,27.90769231,PrivacySuppressed,0.261538462,PrivacySuppressed,0.56
107460,1226100,12261,North Arkansas College,Harrison,AR,72601-5508,Higher Learning Commission,www.northark.edu/,www.northark.edu/NetPrice/npcalc.htm,1,1,1,1,2,1,5,5,33,NULL,36.219909,-93.08844,NULL,NULL,1286,24.77272727,0.180976431,0.5496633,0.008417508,0.537511871
107488,2073700,20737,Northwest Technical Institute,Springdale,AR,72764,Council on Occupational Education,www.nwti.edu/,www.nwtionline.com/NetPriceCalculator/npcalc.htm,1,1,1,1,1,1,5,5,13,NULL,36.178032,-94.115346,NULL,NULL,181,26.19491525,0.203389831,0.406779661,PrivacySuppressed,0.586387435
107512,110200,1102,Ouachita Baptist University,Arkadelphia,AR,71998-0001,Higher Learning Commission,www.obu.edu/,www.obu.edu/finaid/,3,1,1,3,3,2,5,5,32,NULL,34.126093,-93.052471,0.6143,0.6143,1524,19.76295133,PrivacySuppressed,0.956043956,PrivacySuppressed,0.235489221
107521,997600,9976,Arkansas State University Three Rivers,Malvern,AR,72104-0816,Higher Learning Commission,www.asutr.edu/,www.asutr.edu/sites/default/static/netpricecalc/npcalc.htm,1,1,1,1,2,1,5,5,31,NULL,34.378745,-92.821416,NULL,NULL,525,27.43769968,0.260383387,0.378594249,PrivacySuppressed,0.5
107549,2087000,20870,Ozarka College,Melbourne,AR,72556-0010,Higher Learning Commission,www.ozarka.edu/,www.ozarka.edu/finaid/npcalc.cfm,1,1,1,1,2,1,5,5,43,NULL,36.053031,-91.896355,NULL,NULL,818,26.5,0.286419753,0.417283951,PrivacySuppressed,0.509219858
107558,109400,1094,University of the Ozarks,Clarksville,AR,72830,Higher Learning Commission,https://www.ozarks.edu/,https://admissions.ozarks.edu/secure/calc/default.aspx,3,1,1,3,3,2,5,5,33,NULL,35.476278,-93.467221,0.5019,0.5019,812,20.13483146,PrivacySuppressed,0.918539326,PrivacySuppressed,0.346875
107585,524500,5245,University of Arkansas Community College-Morrilton,Morrilton,AR,72110,Higher Learning Commission,www.uaccm.edu/,www.uaccm.edu/finance/calculator.html,1,1,1,1,2,1,5,5,32,NULL,35.172136,-92.728507,0.7551,0.7551,1651,24.36411264,0.16502947,0.563850688,PrivacySuppressed,0.492526158
107600,110300,1103,Philander Smith College,Little Rock,AR,72202-3799,Higher Learning Commission,https://www.philander.edu/,https://www.philander.edu/admissions/paying-for-college/net-price-calculator,3,1,1,3,3,2,5,5,12,NULL,34.737131,-92.283015,NULL,NULL,996,21.86079183,0.020434227,0.75862069,PrivacySuppressed,0.430340557
107619,110400,1104,Phillips Community College of the University of Arkansas,Helena,AR,72342-0785,Higher Learning Commission,www.pccua.edu/,hdatatelweb.pccua.edu/web/netcalc/netcalc.html,1,1,1,1,2,1,5,5,41,NULL,34.546155,-90.616884,NULL,NULL,705,22.59364549,0.095317726,0.623745819,PrivacySuppressed,0.445945946
107637,570700,5707,Southeast Arkansas College,Pine Bluff,AR,71603,Higher Learning Commission,https://www.seark.edu/,https://www.seark.edu/net-price-calculator,1,1,1,1,2,1,5,5,13,NULL,34.210309,-92.025936,NULL,NULL,1021,24.99534342,0.094295693,0.535506403,PrivacySuppressed,0.527740189
107655,2202400,22024,Professional Cosmetology Education Center,El Dorado,AR,71730-4009,National Accrediting Commission of Career Arts and Sciences,www.pcec.edu/,www.pcec.edu/wp-content/uploads/2019/10/index-PCEC.html,1,1,1,1,1,3,5,5,33,NULL,33.216032,-92.664101,NULL,NULL,44,25.25,0.277777778,0.5,PrivacySuppressed,PrivacySuppressed
107664,2075300,20753,University of Arkansas-Pulaski Technical College,North Little Rock,AR,72118-3347,Higher Learning Commission,uaptc.edu/,mediaserver.uaptc.edu/net-price-calculator/index.html,1,1,1,1,2,1,5,5,13,NULL,34.782783,-92.299184,NULL,NULL,4629,26.09668273,0.130422455,0.493904168,0.007371704,0.439144737
107725,573200,5732,University of Arkansas Hope-Texarkana,Hope,AR,71801,Higher Learning Commission,www.uaht.edu/,www.uaht.edu/about/tuition-and-fees/tuition-calculator/,1,1,2,1,2,1,5,5,32,NULL,33.641665,-93.596762,NULL,NULL,926,24.32867884,0.13104189,0.566058002,PrivacySuppressed,0.550377834
107743,2111100,21111,University of Arkansas Community College Rich Mountain,Mena,AR,71953,Higher Learning Commission,www.uarichmountain.edu/,www.uarichmountain.edu/financial-aid/net-price-calculator,1,1,1,1,2,1,5,5,33,NULL,34.591449,-94.219799,NULL,NULL,524,24.11386139,0.198019802,0.574257426,PrivacySuppressed,0.635327635
107789,792100,7921,Paul Mitchell the School-Arkansas,Fayetteville,AR,72703,National Accrediting Commission of Career Arts and Sciences,https://paulmitchell.edu/arkansas/,https://paulmitchell.edu/arkansas/tuition-calculator,1,1,1,1,1,3,5,5,13,NULL,36.126373,-94.153892,NULL,NULL,102,23.47133758,0.191082803,0.522292994,PrivacySuppressed,0.482014389
107831,2569600,25696,Searcy Beauty College,Searcy,AR,72143,National Accrediting Commission of Career Arts and Sciences,searcybeautycollege.com/,searcybeautycollege.com/net-price-calculator,1,1,1,1,1,3,5,5,32,NULL,35.239148,-91.735135,NULL,NULL,73,26.69811321,0.358490566,0.264150943,PrivacySuppressed,0.670454546
107840,110500,1105,Shorter College,N Little Rock,AR,72114,Transnational Association of Christian Colleges and Schools,www.shortercollege.edu/,www.shortercollege.edu/net-price-calculator,2,1,1,2,2,2,5,5,13,NULL,34.75933,-92.261331,NULL,NULL,221,33.14017341,0.134393064,0.063583815,0.021676301,0.557281553
107877,110600,1106,Williams Baptist University,Walnut Ridge,AR,72476,Higher Learning Commission,https://williamsbaptistuniversity.com/,https://npc.collegeboard.org/app/wbcoll,3,1,1,3,4,2,5,5,42,NULL,36.125676,-90.940277,0.5878,0.5878,512,20.94230769,0.05,0.884615385,PrivacySuppressed,0.323529412
107974,2074600,20746,South Arkansas Community College,El Dorado,AR,71731-7010,Higher Learning Commission,www.southark.edu/,https://www.southark.edu/admissions/support/net-price-calculator,1,1,1,1,2,1,5,5,33,NULL,33.209446,-92.666087,NULL,NULL,1145,26.3265857,0.165991903,0.472334683,PrivacySuppressed,0.539556962
107983,110700,1107,Southern Arkansas University Main Campus,Magnolia,AR,71753,Higher Learning Commission,https://www.saumag.edu/,https://www.saumag.edu/netprice/,3,1,1,3,4,1,5,5,33,NULL,33.291618,-93.235922,0.6506,0.6506,3164,21.33203125,0.057477679,0.828125,PrivacySuppressed,0.420921544
107992,773800,7738,Southern Arkansas University Tech,Camden,AR,71701-1906,Higher Learning Commission,www.sautech.edu/,www.sautech.edu/netPriceCalc/index.html,1,1,1,1,2,1,5,5,42,NULL,33.628367,-92.721629,NULL,NULL,704,24.7195122,0.130662021,0.587108014,PrivacySuppressed,0.524390244
108065,3214300,32143,Velvatex College of Beauty Culture,Little Rock,AR,72202-5452,National Accrediting Commission of Career Arts and Sciences,www.velvatexcollege.com/,www.velvatexcollege.com/,1,1,1,1,1,3,5,5,12,NULL,34.735685,-92.289597,NULL,NULL,15,30.54545455,PrivacySuppressed,PrivacySuppressed,PrivacySuppressed,0.636363636
108092,111000,1110,University of Arkansas-Fort Smith,Fort Smith,AR,72913-3649,Higher Learning Commission,uafs.edu/,admissions.uafs.edu/sites/admissions.uafs.edu/files/Departments/Financial/documents/np_calc/Net Price Calculator.htm,3,1,1,3,4,1,5,5,13,NULL,35.384184,-94.373729,NULL,NULL,4883,22.9306017,0.112587671,0.707641196,0.006275378,0.484022156
108232,753100,7531,Academy of Art University,San Francisco,CA,94105,Western Association of Schools and Colleges Senior Colleges and University Commission,www.academyart.edu/,https://npc.collegeboard.org/student/app/academyart,3,1,1,3,4,3,6,8,11,NULL,37.787943,-122.400578,NULL,NULL,6570,25.72972973,0.14527027,0.479054054,0.008783784,0.408370159
108269,3288300,32883,Academy of Chinese Culture and Health Sciences,Oakland,CA,94612,Accrediting Commission for Acupuncture and Oriental Medicine,www.acchs.edu/,www.acchs.edu/npcalc.htm,3,1,1,4,4,2,6,8,11,NULL,37.805972,-122.269839,NULL,NULL,NULL,NULL,NULL,NULL,NULL,NULL
108649,2258600,22586,Avalon School of Cosmetology-Alameda,Alameda,CA,94501,NULL,avalon.edu/locations/alameda-ca/,avalon.edu/financial-aid/net-price-calculator-2-2/,1,1,1,1,1,3,6,8,21,NULL,37.764203,-122.243566,NULL,NULL,47,25.5470852,0.094170404,0.376681614,PrivacySuppressed,0.517241379
108667,672000,6720,College of Alameda,Alameda,CA,94501,Western Association of Schools and Colleges Accrediting Commission for Community and Junior Colleges,alameda.peralta.edu/,https://misweb.cccco.edu/npc/341/npcalc.htm,1,1,1,1,2,1,6,8,21,NULL,37.781017,-122.279303,NULL,NULL,4436,25.93333333,0.143703704,0.527407407,PrivacySuppressed,0.561310782
108807,111100,1111,Allan Hancock College,Santa Maria,CA,93454-6399,Western Association of Schools and Colleges Accrediting Commission for Community and Junior Colleges,www.hancockcollege.edu/,https://misweb.cccco.edu/npc/611/npcalc.htm,2,1,1,2,2,1,6,8,12,NULL,34.943716,-120.421144,NULL,NULL,9029,23.22894641,0.100984324,0.655122129,0.010572366,0.594700687
108852,746501,7465,American Academy of Dramatic Arts-Los Angeles,Los Angeles,CA,90028,Middle States Commission on Higher Education,www.aada.edu/,https://www.aada.edu/admissions/net-price-calculator/,2,0,2,2,2,2,6,8,11,NULL,34.095378,-118.343701,0.7847,0.8163,251,20.65873016,PrivacySuppressed,0.873015873,PrivacySuppressed,0.233983287
108861,112000,1120,Berkeley School of Theology,Berkeley,CA,94704-3029,Commission on Accrediting of the Association of Theological Schools,www.absw.edu/,www.absw.edu/,3,1,1,4,4,2,6,8,12,NULL,37.865252,-122.256149,NULL,NULL,NULL,PrivacySuppressed,PrivacySuppressed,PrivacySuppressed,PrivacySuppressed,PrivacySuppressed
108870,2222000,22220,American Film Institute Conservatory,Los Angeles,CA,90027-1625,Western Association of Schools and Colleges Senior Colleges and University Commission,www.afi.com/,conservatory.afi.com/tuition-and-fees/,3,1,1,4,4,2,6,8,11,NULL,34.10767,-118.310018,NULL,NULL,NULL,PrivacySuppressed,PrivacySuppressed,PrivacySuppressed,PrivacySuppressed,PrivacySuppressed
108977,1307400,13074,American Beauty College,West Covina,CA,91790,National Accrediting Commission of Career Arts and Sciences,https://www.americanbeautycollege.edu/,https://americanbeautycollege.edu/cosmetology-scholarships/,1,1,1,1,1,3,6,8,21,NULL,34.069367,-117.936959,NULL,NULL,92,25.15068493,0.109589041,0.45890411,PrivacySuppressed,0.636363636
109040,2241800,22418,American Career College-Los Angeles,Los Angeles,CA,90004,Accrediting Bureau of Health Education Schools,https://americancareercollege.edu/,https://americancareercollege.aidcalc.cloud/,1,1,2,1,2,3,6,8,11,NULL,34.079323,-118.292481,NULL,NULL,1567,25.55442015,0.134505703,0.421577947,0.008792776,0.559902201
109086,2099200,20992,American Conservatory Theater,San Francisco,CA,94102,Western Association of Schools and Colleges Senior Colleges and University Commission,www.act-sf.org/,www.actaccess.org/netpricecalculator/npcalc.htm,1,1,1,1,4,2,6,8,11,NULL,37.786923,-122.410265,NULL,NULL,1,PrivacySuppressed,PrivacySuppressed,PrivacySuppressed,PrivacySuppressed,PrivacySuppressed
109208,123200,1232,American River College,Sacramento,CA,95841-4286,Western Association of Schools and Colleges Accrediting Commission for Community and Junior Colleges,https://www.arc.losrios.edu/,https://www.arc.losrios.edu/admissions/cost-of-attendance/net-price-calculator,1,1,1,1,2,1,6,8,21,NULL,38.65085,-121.349672,NULL,NULL,28666,26.97778675,0.200861605,0.458804523,0.014943457,0.514147803
109350,111300,1113,Antelope Valley College,Lancaster,CA,93536-5426,Western Association of Schools and Colleges Accrediting Commission for Community and Junior Colleges,www.avc.edu/,https://misweb.cccco.edu/npc/621/npcalc.htm,2,1,1,2,3,1,6,8,21,NULL,34.676207,-118.186166,NULL,NULL,12334,24.98190709,0.087856561,0.548655257,0.008475958,0.561569981
109651,111600,1116,Art Center College of Design,Pasadena,CA,91103,Western Association of Schools and Colleges Senior Colleges and University Commission,www.artcenter.edu/,https://tcc.ruffalonl.com/Art-Center-College-of-Design/Freshman-Calculator,3,1,1,3,4,2,6,8,12,NULL,34.169031,-118.185102,0.7084,0.7084,2034,22.8465704,0.019855596,0.71299639,PrivacySuppressed,0.242884251
109721,902200,9022,Associated Technical College-Los Angeles,Los Angeles,CA,90017-1604,Accrediting Commission of Career Schools and Colleges,www.atcla.edu/,https://atcla.edu/calculator2019/,1,1,1,1,1,3,6,8,11,NULL,34.056102,-118.272364,NULL,NULL,335,30.54024256,0.117971334,0.180815877,PrivacySuppressed,0.597156398
109730,2553500,25535,Associated Technical College-San Diego,San Diego,CA,92108-1630,Accrediting Commission of Career Schools and Colleges,www.atcsd.edu/,www.atcsd.edu/calculator2019,1,1,1,1,1,3,6,8,11,NULL,32.773178,-117.135196,NULL,NULL,85,32.64197531,0.111111111,0.12962963,0.188271605,0.508108108
109785,111700,1117,Azusa Pacific University,Azusa,CA,91702-7000,Western Association of Schools and Colleges Senior Colleges and University Commission,www.apu.edu/,https://www.apu.edu/undergraduate-admissions/financialaid/calculator/,3,1,1,3,4,2,6,8,21,NULL,34.130047,-117.888375,0.6748,0.6748,5128,26.05728789,0.16968818,0.528885666,0.005801305,0.379825992
109819,111800,1118,Bakersfield College,Bakersfield,CA,93305-1299,Western Association of Schools and Colleges Accrediting Commission for Community and Junior Colleges,www.bakersfieldcollege.edu/,https://misweb.cccco.edu/npc/521/npcalc.htm,2,1,1,2,3,1,6,8,11,NULL,35.40911,-118.973753,NULL,NULL,19945,23.19697343,0.087844488,0.626476378,0.005659449,0.630508475
109907,111900,1119,Barstow Community College,Barstow,CA,92311,Western Association of Schools and Colleges Accrediting Commission for Community and Junior Colleges,www.barstow.edu/,https://misweb.cccco.edu/npc/911/npcalc.htm,2,1,1,2,2,1,6,8,32,NULL,34.870285,-117.023412,NULL,NULL,2801,26.90927522,0.251900659,0.31626964,0.012164217,0.531069827
109934,705000,7050,Bellus Academy-Chula Vista,Chula Vista,CA,91911,National Accrediting Commission of Career Arts and Sciences,www.bellusacademy.edu/,https://www.bellusacademy.edu/wp-content/uploads/2019/10/NPC-Chula-Vista.html,1,1,1,1,1,3,6,8,11,NULL,32.614773,-117.083738,NULL,NULL,239,25.66984127,0.222222222,0.320634921,PrivacySuppressed,0.56147541
110060,3266300,32663,Bethesda University,Anaheim,CA,92801,Transnational Association of Christian Colleges and Schools,www.buc.edu/,www.buc.edu/net-price-calculator,3,1,1,3,4,2,6,8,11,NULL,33.842295,-117.941323,NULL,NULL,258,26.63541667,0.114583333,0.479166667,PrivacySuppressed,0.493975904
110097,112200,1122,Biola University,La Mirada,CA,90639-0001,Western Association of Schools and Colleges Senior Colleges and University Commission,https://www.biola.edu/,https://www.biola.edu/financial-aid/resources/net-price-calculator#net-price,3,1,1,3,4,2,6,8,21,NULL,33.906203,-118.014374,0.6985,0.6985,4031,20.36529372,0.020256583,0.911546253,PrivacySuppressed,0.235507246
110194,2543400,25434,Brownson Technical School,Anaheim,CA,92805,Accrediting Commission of Career Schools and Colleges,https://brownson.edu/,https://brownson.edu/netprice/npcalc.php,1,1,1,1,1,3,6,8,11,NULL,33.819032,-117.905774,NULL,NULL,53,29.57575758,0.231060606,0.200757576,0.064393939,0.632768362
110219,716400,7164,Bryan University,Tempe,AZ,85281,Accrediting Commission of Career Schools and Colleges,bryanuniversity.edu/,bryanuniversity.edu/about/consumer-info/net-price-calculator/,2,1,1,2,4,3,4,6,12,NULL,33.437779,-111.944197,NULL,NULL,1115,33.25811209,0.315634218,0.087020649,0.058013766,0.535202864
110246,807300,8073,Butte College,Oroville,CA,95965-8399,Western Association of Schools and Colleges Accrediting Commission for Community and Junior Colleges,www.butte.edu/,https://misweb.cccco.edu/npc/111/npcalc.htm,2,1,1,2,2,1,6,8,42,NULL,39.649782,-121.644831,NULL,NULL,9249,23.83725366,0.090273363,0.611782157,0.008476372,0.508591065
110316,1215400,12154,California Institute of Integral Studies,San Francisco,CA,94103,Western Association of Schools and Colleges Senior Colleges and University Commission,www.ciis.edu/,https://my.ciis.edu/ICS/Financial_Aid/Forms_and_Resources.jnz?portlet=Budget_Calculator&_ga=2.122314440.273392424.1504792767-1278539770.1487619126,3,1,1,3,4,2,6,8,11,NULL,37.774924,-122.416102,NULL,NULL,69,34.16470588,0.164705882,PrivacySuppressed,PrivacySuppressed,PrivacySuppressed
110334,112400,1124,Cabrillo College,Aptos,CA,95003,Western Association of Schools and Colleges Accrediting Commission for Community and Junior Colleges,www.cabrillo.edu/,misweb.cccco.edu/npc/411/npcalc.htm,2,1,1,2,2,1,6,8,22,NULL,36.989448,-121.924797,NULL,NULL,9800,23.97732604,0.059812353,0.618451916,0.004300235,0.507571802
110361,112500,1125,California Baptist University,Riverside,CA,92504-3297,Western Association of Schools and Colleges Senior Colleges and University Commission,www.calbaptist.edu/,https://calbaptist.studentaidcalculator.com/welcome.aspx,3,1,1,3,4,2,6,8,11,NULL,33.929321,-117.425619,0.7828,0.7828,8170,24.09567021,0.149598133,0.627171377,0.006481722,0.416079812
110370,112700,1127,California College of the Arts,San Francisco,CA,94107-2247,Western Association of Schools and Colleges Senior Colleges and University Commission,www.cca.edu/,www.cca.edu/admissions/financialaid/calculator,3,1,1,3,4,2,6,8,11,NULL,37.767485,-122.399451,0.8503,0.8503,1455,21.54324324,PrivacySuppressed,0.805405405,PrivacySuppressed,0.244186047
110398,394700,3947,University of California-Hastings College of Law,San Francisco,CA,94102-4978,Western Association of Schools and Colleges Senior Colleges and University Commission,www.uchastings.edu/,www.uchastings.edu/fiscal-services/tuition-and-fees/,3,1,1,4,4,1,6,8,11,NULL,37.781137,-122.4157,NULL,NULL,NULL,PrivacySuppressed,PrivacySuppressed,PrivacySuppressed,PrivacySuppressed,PrivacySuppressed
110404,113100,1131,California Institute of Technology,Pasadena,CA,91125,Western Association of Schools and Colleges Senior Colleges and University Commission,www.caltech.edu/,www.finaid.caltech.edu/npc,3,1,1,3,4,2,6,8,12,NULL,34.137349,-118.125878,0.0642,0.0642,938,19.34782609,PrivacySuppressed,PrivacySuppressed,PrivacySuppressed,PrivacySuppressed
110413,113300,1133,California Lutheran University,Thousand Oaks,CA,91360-2787,Western Association of Schools and Colleges Senior Colleges and University Commission,www.callutheran.edu/,https://www.callutheran.edu/financial-aid/tuition-fees/net-price-calculator.html,3,1,1,3,4,2,6,8,12,NULL,34.224566,-118.878924,0.7142,0.7142,3077,22.31310861,0.062921348,0.780524345,PrivacySuppressed,0.353858785
110422,114300,1143,California Polytechnic State University-San Luis Obispo,San Luis Obispo,CA,93407,Western Association of Schools and Colleges Senior Colleges and University Commission,calpoly.edu/,financialaid.calpoly.edu/calculator/npcalc.htm,3,1,1,3,4,1,6,8,23,NULL,35.299513,-120.657311,0.2842,0.2842,20453,20.14106655,0.01230629,0.930036463,PrivacySuppressed,0.248062016
110468,1111700,11117,Alliant International University-San Diego,San Diego,CA,92131,Western Association of Schools and Colleges Senior Colleges and University Commission,https://www.alliant.edu/,https://www.alliant.edu/net-price-calculator,1,1,6,1,4,3,6,8,11,NULL,32.897056,-117.094398,0.6667,0.6667,327,30.99367089,0.278481013,0.088607595,PrivacySuppressed,0.319298246
110486,799300,7993,California State University-Bakersfield,Bakersfield,CA,93311-1099,Western Association of Schools and Colleges Senior Colleges and University Commission,www.csub.edu/,https://www2.calstate.edu/attend/paying-for-college/Pages/csu-costs.aspx,3,1,1,3,4,1,6,8,11,NULL,35.350005,-119.104711,0.8071,0.8071,9750,23.17431193,0.083715596,0.692889908,0.002752294,0.58172232
110495,115700,1157,California State University-Stanislaus,Turlock,CA,95382-0299,Western Association of Schools and Colleges Senior Colleges and University Commission,https://www.csustan.edu/,https://www2.calstate.edu/attend/paying-for-college/Pages/csu-costs.aspx,3,1,1,3,4,1,6,8,23,NULL,37.52577,-120.852511,0.8929,0.8929,9686,23.21042874,0.081807648,0.680880649,0.005098494,0.599456686
110510,114200,1142,California State University-San Bernardino,San Bernardino,CA,92407-2393,Western Association of Schools and Colleges Senior Colleges and University Commission,www.csusb.edu/,https://www2.calstate.edu/attend/paying-for-college/Pages/csu-costs.aspx,3,1,1,3,4,1,6,8,12,NULL,34.182622,-117.323801,0.6856,0.6856,17963,22.73337371,0.0654149,0.706965476,0.004724409,0.596857816
110529,114400,1144,California State Polytechnic University-Pomona,Pomona,CA,91768,Western Association of Schools and Colleges Senior Colleges and University Commission,www.cpp.edu/,https://www.cpp.edu/~financial-aid/net-price-calculator/npcalc.htm,3,1,1,3,4,1,6,8,21,NULL,34.057912,-117.821476,0.5459,0.5459,26373,22.38213583,0.03863189,0.746062992,0.005413386,0.492781664
110538,114600,1146,California State University-Chico,Chico,CA,95929-0150,Western Association of Schools and Colleges Senior Colleges and University Commission,www.csuchico.edu/,https://www2.calstate.edu/attend/paying-for-college/Pages/csu-costs.aspx,3,1,1,3,4,1,6,8,12,NULL,39.729712,-121.844859,0.7233,0.7233,16044,22.35678392,0.052449749,0.761149498,0.003925879,0.473401298
110547,114100,1141,California State University-Dominguez Hills,Carson,CA,90747-0005,Western Association of Schools and Colleges Senior Colleges and University Commission,https://www.csudh.edu/,https://www2.calstate.edu/attend/paying-for-college/Pages/csu-costs.aspx,3,1,1,3,4,1,6,8,13,NULL,33.864766,-118.255917,0.77,0.77,15328,25.30506838,0.068061142,0.52003218,0.006596943,0.590501792
110556,114700,1147,California State University-Fresno,Fresno,CA,93740,Western Association of Schools and Colleges Senior Colleges and University Commission,www.fresnostate.edu/,fresnostate.edu/studentaffairs/financialaid/netprice/index.html,3,1,1,3,4,1,6,8,11,NULL,36.811154,-119.744569,0.5794,0.5794,21156,22.34042089,0.062479555,0.759459165,0.003598299,0.53245174
110565,113700,1137,California State University-Fullerton,Fullerton,CA,92831-3599,Western Association of Schools and Colleges Senior Colleges and University Commission,www.fullerton.edu/,www.fullerton.edu/financialaid/calculator/,3,1,1,3,4,1,6,8,21,NULL,33.881506,-117.885446,0.5269,0.5269,35087,22.85596452,0.052136021,0.723134386,0.004124193,0.494455253
110574,113800,1138,California State University-East Bay,Hayward,CA,94542,Western Association of Schools and Colleges Senior Colleges and University Commission,www.csueastbay.edu/,www.csueastbay.edu/financialaid/files/images/net-price-calculator/npcalc.htm,3,1,1,3,4,1,6,8,21,NULL,37.657694,-122.054135,0.7618,0.7618,13104,24.61632176,0.076769025,0.569425901,0.006341789,0.509297521
110583,113900,1139,California State University-Long Beach,Long Beach,CA,90840-0115,Western Association of Schools and Colleges Senior Colleges and University Commission,www.csulb.edu/,https://www2.calstate.edu/attend/paying-for-college/Pages/csu-costs.aspx,3,1,1,3,4,1,6,8,11,NULL,33.782818,-118.11204,0.3927,0.3927,32900,22.63120509,0.036177418,0.728999752,0.003964649,0.486271676
110592,114000,1140,California State University-Los Angeles,Los Angeles,CA,90032-8506,Western Association of Schools and Colleges Senior Colleges and University Commission,www.calstatela.edu/,https://www2.calstate.edu/attend/paying-for-college/Pages/csu-costs.aspx,3,1,1,3,4,1,6,8,11,NULL,34.066927,-118.168965,0.4781,0.4781,22743,23.04972376,0.047088823,0.684997875,0.003059924,0.615339372
110608,115300,1153,California State University-Northridge,Northridge,CA,91330,Western Association of Schools and Colleges Senior Colleges and University Commission,https://www.csun.edu/,https://www2.calstate.edu/attend/paying-for-college/Pages/csu-costs.aspx,3,1,1,3,4,1,6,8,11,NULL,34.240126,-118.529319,0.5934,0.5934,34713,22.68120572,0.043547715,0.732810113,0.004445062,0.538672809
110617,115000,1150,California State University-Sacramento,Sacramento,CA,95819-2694,Western Association of Schools and Colleges Senior Colleges and University Commission,www.csus.edu/,https://www2.calstate.edu/attend/paying-for-college/Pages/csu-costs.aspx,3,1,1,3,4,1,6,8,11,NULL,38.559415,-121.423549,0.8226,0.8226,28718,23.1948718,0.066058236,0.686831812,0.005388961,0.490483319
110635,131200,1312,University of California-Berkeley,Berkeley,CA,94720,Western Association of Schools and Colleges Senior Colleges and University Commission,www.berkeley.edu/,https://financialaid.berkeley.edu/sites/default/files/docs/FinancialLiteracy/CalcBalance_LiveFields_final.pdf,3,1,1,3,4,1,6,8,12,NULL,37.871918,-122.260463,0.1625,0.1625,31345,21.50653739,0.026002644,0.809313942,0.002644337,0.345800525
110644,131300,1313,University of California-Davis,Davis,CA,95616-8678,Western Association of Schools and Colleges Senior Colleges and University Commission,ucdavis.edu/,myawards.ucdavis.edu/AidEstimator,3,1,1,3,4,1,6,8,23,NULL,38.539667,-121.749567,0.3887,0.3887,30962,21.20280172,0.022952586,0.847306035,0.002586207,0.408311428
110653,131400,1314,University of California-Irvine,Irvine,CA,92697,Western Association of Schools and Colleges Senior Colleges and University Commission,www.uci.edu/,www.ofas.uci.edu/content/Calculator.aspx,3,1,1,3,4,1,6,8,11,NULL,33.648434,-117.841248,0.2654,0.2654,30367,20.45639952,0.015213317,0.908830338,0.001322897,0.439811172
110662,131500,1315,University of California-Los Angeles,Los Angeles,CA,90095-1405,Western Association of Schools and Colleges Senior Colleges and University Commission,www.ucla.edu/,https://dnn.uclanet.ucla.edu/fas102016/Prospective-Student/Net-Price-Calculator,3,1,1,3,4,1,6,8,11,NULL,34.07178,-118.442179,0.1232,0.1232,31537,21.08359271,0.01511783,0.850155625,0.002779013,0.380891393
110671,131600,1316,University of California-Riverside,Riverside,CA,92521,Western Association of Schools and Colleges Senior Colleges and University Commission,www.ucr.edu/,vcsaweb.ucr.edu/FinAidManualCalculator/,3,1,1,3,4,1,6,8,11,NULL,33.97246,-117.32741,0.5652,0.5652,22015,20.26240301,0.01587115,0.916529509,0.001410769,0.483469907
110680,131700,1317,University of California-San Diego,La Jolla,CA,92093,Western Association of Schools and Colleges Senior Colleges and University Commission,www.ucsd.edu/,fas.ucsd.edu/forms-and-resources/financial-aid-estimator/index.html,3,1,1,3,4,1,6,8,11,NULL,32.877749,-117.235866,0.3148,0.3148,30789,20.78065032,0.015991471,0.889658849,0.002665245,0.395708283
110699,131900,1319,University of California-San Francisco,San Francisco,CA,94143-0244,Western Association of Schools and Colleges Senior Colleges and University Commission,ucsf.edu/,NULL,3,1,1,4,4,1,6,8,11,NULL,37.763737,-122.458489,NULL,NULL,NULL,28.65217391,PrivacySuppressed,PrivacySuppressed,PrivacySuppressed,PrivacySuppressed
110705,132000,1320,University of California-Santa Barbara,Santa Barbara,CA,93106,Western Association of Schools and Colleges Senior Colleges and University Commission,www.ucsb.edu/,finaid.ucsb.edu/net-price-calculator,3,1,1,3,4,1,6,8,22,NULL,34.416297,-119.846426,0.2956,0.2956,23337,20.17647978,0.006403249,0.928783383,PrivacySuppressed,0.424005811
110714,132100,1321,University of California-Santa Cruz,Santa Cruz,CA,95064-1011,Western Association of Schools and Colleges Senior Colleges and University Commission,www.ucsc.edu/,www2.ucsc.edu/finaidcalc/,3,1,1,3,4,1,6,8,13,NULL,36.995584,-122.058801,0.5131,0.5131,17517,20.45500879,0.010544816,0.899648506,PrivacySuppressed,0.367497508
110778,2267600,22676,Sofia University,Palo Alto,CA,94303,Western Association of Schools and Colleges Senior Colleges and University Commission,www.sofia.edu/,https://bigfuture.collegeboard.org/pay-for-college/college-costs/college-costs-calculator,3,1,1,3,4,3,6,8,13,NULL,37.430325,-122.10866,NULL,NULL,8,PrivacySuppressed,PrivacySuppressed,PrivacySuppressed,PrivacySuppressed,PrivacySuppressed
110875,2065700,20657,California Beauty School,Modesto,CA,95354,National Accrediting Commission of Career Arts and Sciences,www.calbeautycollege.edu/,www.calbeautycollege.edu/net-price-calculator,1,1,1,1,1,3,6,8,12,NULL,37.645217,-120.99689,NULL,NULL,105,25.38461539,0.134615385,0.528846154,PrivacySuppressed,0.538461539
110918,884400,8844,California Christian College,Fresno,CA,93727,Transnational Association of Christian Colleges and Schools,www.calchristiancollege.edu/,www.calchristiancollege.edu/financial-aid/net-price-calculator/,3,1,1,2,2,2,6,8,11,NULL,36.749366,-119.711123,1,1,11,26.33333333,PrivacySuppressed,PrivacySuppressed,PrivacySuppressed,PrivacySuppressed
111045,4274800,42748,Haven University,Garden Grove,CA,92840-1340,Transnational Association of Christian Colleges and Schools,www.haven.edu/,www.haven.edu/,NULL,1,1,4,4,2,6,8,21,NULL,33.777392,-117.939412,NULL,NULL,18,NULL,NULL,NULL,NULL,NULL
111054,1186500,11865,California Hair Design Academy,La Mesa,CA,91942-5055,National Accrediting Commission of Career Arts and Sciences,https://chdaschools.com/,https://chdaschools.com/consumer-information/net-price-calculator/,1,1,1,1,1,3,6,8,21,NULL,32.765221,-117.024261,NULL,NULL,128,26.30111524,0.189591078,0.431226766,PrivacySuppressed,0.538834952
111081,113200,1132,California Institute of the Arts,Valencia,CA,91355-2397,Western Association of Schools and Colleges Senior Colleges and University Commission,https://www.calarts.edu/,https://files.calarts.edu/docs/financial-aid/calarts-net-price-calculator/,3,1,1,3,4,2,6,8,21,NULL,34.39327,-118.566837,0.2528,0.2528,1015,21.19205298,PrivacySuppressed,0.841059603,PrivacySuppressed,0.157342657
111188,113400,1134,California State University Maritime Academy,Vallejo,CA,94590-8181,Western Association of Schools and Colleges Senior Colleges and University Commission,https://www.csum.edu/,https://www2.calstate.edu/attend/paying-for-college/Pages/csu-costs.aspx,3,1,1,3,4,1,6,8,12,NULL,38.069061,-122.231551,0.7621,0.7621,911,21.15920398,PrivacySuppressed,0.835820896,PrivacySuppressed,0.199475066
111391,1310300,13103,California Western School of Law,San Diego,CA,92101-3046,Western Association of Schools and Colleges Senior Colleges and University Commission,https://www.cwsl.edu/,https://www.cwsl.edu/,3,1,1,4,4,2,6,8,11,NULL,32.722192,-117.162416,NULL,NULL,NULL,NULL,NULL,NULL,NULL,NULL
111434,697300,6973,Canada College,Redwood City,CA,94061-1099,Western Association of Schools and Colleges Accrediting Commission for Community and Junior Colleges,canadacollege.edu/,https://misweb.cccco.edu/npc/371/npcalc.htm,2,1,1,2,2,1,6,8,21,NULL,37.44877,-122.265398,NULL,NULL,4811,25.74349882,0.109929078,0.492907801,PrivacySuppressed,0.57278481
111461,890300,8903,College of the Canyons,Santa Clarita,CA,91355-1899,Western Association of Schools and Colleges Accrediting Commission for Community and Junior Colleges,www.canyons.edu/,https://www.canyons.edu/studentservices/financialaid/about/netcalc.php,2,1,1,2,2,1,6,8,21,NULL,34.403993,-118.568698,NULL,NULL,16902,23.74817017,0.086230558,0.642497713,0.011665142,0.514626527
111513,2125000,21250,Career Academy of Beauty,Garden Grove,CA,92845,National Accrediting Commission of Career Arts and Sciences,caofb.com/,caofb.com/,1,1,1,1,1,3,6,8,21,NULL,33.781018,-118.031697,NULL,NULL,159,26.93625498,0.139442231,0.306772908,PrivacySuppressed,0.509259259
111638,673100,6731,Casa Loma College-Van Nuys,Van Nuys,CA,91405,Accrediting Bureau of Health Education Schools,https://www.casalomacollege.edu/,https://casalomacollege.studentaidcalculator.com/survey.aspx,1,1,1,2,2,2,6,8,11,NULL,34.192829,-118.457781,NULL,NULL,162,28.55555556,0.266666667,0.262962963,PrivacySuppressed,0.529147982
111708,2332809,23328,CET-San Diego,San Diego,CA,92102,Council on Occupational Education,https://www.cetweb.edu/,https://cetweb.edu/tuition,1,0,12,1,1,2,6,8,11,NULL,32.711302,-117.105328,NULL,NULL,170,29.4522003,0.2215478,0.294688923,0.028831563,0.692538808
111717,2332800,23328,CET-San Jose,San Jose,CA,95110,Council on Occupational Education,https://cetweb.edu/,https://cetweb.edu/tuition,1,1,12,1,1,2,6,8,11,NULL,37.322723,-121.88698,NULL,NULL,229,29.4522003,0.2215478,0.294688923,0.028831563,0.692538808
111726,2332810,23328,CET-El Centro,El Centro,CA,92243,Council on Occupational Education,https://cetweb.edu/,https://cetweb.edu/tuition,1,0,12,1,1,2,6,8,13,NULL,32.790908,-115.549079,NULL,NULL,217,29.4522003,0.2215478,0.294688923,0.028831563,0.692538808
111744,2332814,23328,CET-Colton,Colton,CA,92324,Council on Occupational Education,https://cetweb.edu/,https://cetweb.edu/tuition,1,0,12,1,1,2,6,8,21,NULL,34.077381,-117.353488,NULL,NULL,166,29.4522003,0.2215478,0.294688923,0.028831563,0.692538808
111762,2332819,23328,CET-Watsonville,Watsonville,CA,95076,Council on Occupational Education,https://www.cetweb.edu/,https://cetweb.edu/tuition,1,0,12,1,1,2,6,8,13,NULL,36.931833,-121.767991,NULL,NULL,116,29.4522003,0.2215478,0.294688923,0.028831563,0.692538808
111799,2332813,23328,CET-Salinas,Salinas,CA,93906,Council on Occupational Education,https://cetweb.edu/,https://cetweb.edu/tuition,1,0,12,1,1,2,6,8,12,NULL,36.707333,-121.65236,NULL,NULL,144,29.4522003,0.2215478,0.294688923,0.028831563,0.692538808
111887,116100,1161,Cerritos College,Norwalk,CA,90650-6298,Western Association of Schools and Colleges Accrediting Commission for Community and Junior Colleges,www.cerritos.edu/,https://misweb.cccco.edu/npc/811/npcalc.htm,2,1,1,2,2,1,6,8,21,NULL,33.886874,-118.097337,NULL,NULL,21339,23.43049716,0.071605244,0.643334158,0.007420233,0.599349092
111896,1011100,10111,Cerro Coso Community College,Ridgecrest,CA,93555-9571,Western Association of Schools and Colleges Accrediting Commission for Community and Junior Colleges,cerrocoso.edu/,https://misweb.cccco.edu/npc/522/npcalc.htm,2,1,1,2,2,1,6,8,41,NULL,35.567525,-117.66767,NULL,NULL,4352,28.15610218,0.197729423,0.317880795,PrivacySuppressed,0.512850467
111920,116200,1162,Chabot College,Hayward,CA,94545,Western Association of Schools and Colleges Accrediting Commission for Community and Junior Colleges,www.chabotcollege.edu/,https://misweb.cccco.edu/npc/482/npcalc.htm,2,1,1,2,2,1,6,8,21,NULL,37.642458,-122.105636,NULL,NULL,12386,24.52548903,0.104327208,0.603141672,0.006224066,0.555425904
111939,116300,1163,Chaffey College,Rancho Cucamonga,CA,91737-3002,Western Association of Schools and Colleges Accrediting Commission for Community and Junior Colleges,https://www.chaffey.edu/,https://misweb.cccco.edu/npc/921/npcalc.htm,2,1,1,2,2,1,6,8,21,NULL,34.147663,-117.573932,NULL,NULL,19310,24.08009451,0.09509746,0.598700532,0.006851743,0.557763401
111948,116400,1164,Chapman University,Orange,CA,92866,Western Association of Schools and Colleges Senior Colleges and University Commission,https://www.chapman.edu/,https://www.chapman.edu/students/tuition-and-aid/financial-aid/net-cost-calculator/index.aspx,3,1,1,3,4,2,6,8,12,NULL,33.79302,-117.852518,0.5565,0.5565,7294,19.90277023,0.008690929,0.956545356,PrivacySuppressed,0.17877412
111966,1036500,10365,Charles R Drew University of Medicine and Science,Los Angeles,CA,90059,Western Association of Schools and Colleges Senior Colleges and University Commission,www.cdrewu.edu/,https://docs.cdrewu.edu/assets//admissions/PriceCalculator.html,2,1,1,2,4,2,6,8,21,NULL,33.925658,-118.242791,0.3164,0.3164,183,28.51612903,0.096774194,0.282258065,PrivacySuppressed,0.47706422
112075,2070500,20705,Concordia University-Irvine,Irvine,CA,92612-3203,Western Association of Schools and Colleges Senior Colleges and University Commission,www.cui.edu/,www.cui.edu/studentlife/financial-aid/undergraduate/index.aspx?id=21911,3,1,1,3,4,2,6,8,11,NULL,33.653665,-117.812305,0.7081,0.7081,1723,22.58955224,0.069296375,0.732409382,PrivacySuppressed,0.283863369
112084,1203100,12031,San Diego Christian College,Santee,CA,92071,Western Association of Schools and Colleges Senior Colleges and University Commission,sdcc.edu/,sdcc.edu/admissions/undergraduate-admissions/tuition-and-financial-aid/,3,1,1,3,4,2,6,8,21,NULL,32.842404,-116.978112,0.5526,0.5526,469,26.78321678,0.200466201,0.526806527,PrivacySuppressed,0.408376963
112093,4281600,42816,Stockton Christian Life College,Stockton,CA,95210-1401,Western Association of Schools and Colleges Senior Colleges and University Commission,www.clc.edu,www.clc.edu,NULL,1,1,0,0,2,6,8,11,NULL,38.029827,-121.296258,NULL,NULL,0,NULL,NULL,NULL,NULL,NULL
112127,116500,1165,Church Divinity School of the Pacific,Berkeley,CA,94709-1211,Commission on Accrediting of the Association of Theological Schools,www.cdsp.edu/,www.cdsp.edu/,3,1,1,4,4,2,6,8,12,NULL,37.876184,-122.261122,NULL,NULL,NULL,NULL,NULL,NULL,NULL,NULL
112172,116600,1166,Citrus College,Glendora,CA,91741-1899,Western Association of Schools and Colleges Accrediting Commission for Community and Junior Colleges,https://www.citruscollege.edu/,https://misweb.cccco.edu/npc/821/npcalc.htm,2,1,1,2,2,1,6,8,21,NULL,34.13537,-117.886469,NULL,NULL,11478,23.41506482,0.068395172,0.633214126,0.013187304,0.537568901
112181,2178700,21787,Citrus Heights Beauty College,Citrus Heights,CA,95610-1410,National Accrediting Commission of Career Arts and Sciences,chbeautycollege.com/,chbeautycollegenetpricecalc.com/,1,1,1,1,1,3,6,8,21,NULL,38.712951,-121.289529,NULL,NULL,123,24.90196078,0.166666667,0.529411765,PrivacySuppressed,0.459770115
112190,450200,4502,City College of San Francisco,San Francisco,CA,94112-1898,Western Association of Schools and Colleges Accrediting Commission for Community and Junior Colleges,www.ccsf.edu/,https://misweb.cccco.edu/npc/361/npcalc.htm,1,1,1,1,2,1,6,8,11,NULL,37.725953,-122.451155,NULL,NULL,21820,26.40844112,0.115471869,0.492059891,0.009754991,0.550295858
112251,116900,1169,Claremont Graduate University,Claremont,CA,91711-6160,Western Association of Schools and Colleges Senior Colleges and University Commission,www.cgu.edu/,www.cgu.edu/admissions/cost-aid/financial-calculator/,3,1,1,4,4,2,6,8,21,NULL,34.103585,-117.713703,NULL,NULL,NULL,32.82857143,0.428571429,PrivacySuppressed,PrivacySuppressed,PrivacySuppressed
112260,117000,1170,Claremont McKenna College,Claremont,CA,91711-6400,Western Association of Schools and Colleges Senior Colleges and University Commission,www.cmc.edu/,https://npc.collegeboard.org/student/app/claremontmckenna,3,1,1,3,4,2,6,8,21,NULL,34.102154,-117.711188,0.103,0.103,1335,19.49765258,PrivacySuppressed,PrivacySuppressed,PrivacySuppressed,PrivacySuppressed
112288,2497300,24973,Milan Institute-Visalia,Visalia,CA,93277,Council on Occupational Education,www.milaninstitute.edu/,milaninstitute.edu/npc/milan-institute/visalia-california/index.html,1,1,2,1,1,3,6,8,12,NULL,36.27164,-119.312151,NULL,NULL,395,25.73859316,0.16634981,0.350760456,PrivacySuppressed,0.670977012
112367,2309500,23095,Clovis Adult Education,Clovis,CA,93611,Council on Occupational Education,clovisadult.cusd.com/,www.clovisadulteducation.com/,1,1,1,1,1,1,6,8,21,NULL,36.834459,-119.690369,NULL,NULL,671,29.57317073,0.292682927,0.158536585,PrivacySuppressed,0.603448276
112385,2063500,20635,Coastline Community College,Fountain Valley,CA,92708-2597,Western Association of Schools and Colleges Accrediting Commission for Community and Junior Colleges,www.coastline.edu/,https://misweb.cccco.edu/npc/831/npcalc.htm,2,1,1,2,2,1,6,8,13,NULL,33.715634,-117.929143,NULL,NULL,9360,31.95759234,0.369015048,0.16005472,0.010259918,0.554902847
112394,117700,1177,Cogswell University of Silicon Valley,San Jose,CA,95134,Western Association of Schools and Colleges Senior Colleges and University Commission,https://cogswell.edu/,https://cogswell.edu/forms/npcalc.htm,3,1,1,3,3,3,6,8,11,NULL,37.414049,-121.94087,0.4934,0.4934,541,21.33219178,PrivacySuppressed,0.770547945,PrivacySuppressed,0.279069767
112455,3577300,35773,Coba Academy,Anaheim,CA,92801,National Accrediting Commission of Career Arts and Sciences,www.coba.edu/,https://coba.edu/NetPrice/npcalc.htm,1,1,1,1,1,3,6,8,11,NULL,33.841141,-117.943108,NULL,NULL,81,24.09090909,PrivacySuppressed,0.51948052,PrivacySuppressed,0.465517241
112525,2482700,24827,Western University of Health Sciences,Pomona,CA,91766-1854,Western Association of Schools and Colleges Senior Colleges and University Commission,www.westernu.edu/,www.westernu.edu/financial-budgets,3,1,1,4,4,2,6,8,21,NULL,34.058092,-117.747732,NULL,NULL,NULL,NULL,NULL,NULL,NULL,NULL
112561,770700,7707,Columbia College,Sonora,CA,95370,Western Association of Schools and Colleges Accrediting Commission for Community and Junior Colleges,www.gocolumbia.edu/,https://misweb.cccco.edu/npc/591/npcalc.htm,2,1,1,2,2,1,6,8,41,NULL,38.030367,-120.388385,NULL,NULL,2483,26.43215507,0.164196123,0.4663626,0.012542759,0.534120735
112570,2110200,21102,Columbia College Hollywood,Tarzana,CA,91356-1411,Western Association of Schools and Colleges Senior Colleges and University Commission,https://www.columbiacollege.edu/,https://columbiacollege.studentaidcalculator.com/survey.aspx,3,1,2,3,3,2,6,8,11,NULL,34.17972,-118.538793,NULL,NULL,870,21.17567568,PrivacySuppressed,0.864864865,PrivacySuppressed,0.295336788
112686,4281700,42817,Compton College,Compton,CA,90221-5393,Western Association of Schools and Colleges Accrediting Commission for Community and Junior Colleges,www.compton.edu/,https://misweb.cccco.edu/npc/721/npcalc.htm,2,1,1,2,2,1,6,8,21,NULL,33.878226,-118.209463,NULL,NULL,4239,23.45823559,0.055175931,0.664966854,0.004589495,0.565500289
112826,119000,1190,Contra Costa College,San Pablo,CA,94806-3195,Western Association of Schools and Colleges Accrediting Commission for Community and Junior Colleges,https://www.contracosta.edu/,https://misweb.cccco.edu/npc/311/npcalc.htm,2,1,1,2,2,1,6,8,21,NULL,37.969381,-122.337377,NULL,NULL,5675,26.13724435,0.123250807,0.498923574,0.007534984,0.557763061
113096,753600,7536,Cosumnes River College,Sacramento,CA,95823-5799,Western Association of Schools and Colleges Accrediting Commission for Community and Junior Colleges,https://www.crc.losrios.edu/,https://www.crc.losrios.edu/admissions/cost-of-attendance/net-price-calculator,2,1,1,2,2,1,6,8,11,NULL,38.45295,-121.423108,NULL,NULL,13220,25.29694775,0.131919296,0.574495603,0.006725298,0.513391304
113111,927200,9272,Crafton Hills College,Yucaipa,CA,92339-1799,Western Association of Schools and Colleges Accrediting Commission for Community and Junior Colleges,www.craftonhills.edu/,https://misweb.cccco.edu/npc/981/npcalc.htm,2,1,1,2,2,1,6,8,41,NULL,34.039178,-117.101173,NULL,NULL,5809,23.03933434,0.099848714,0.637670197,0.011346445,0.568097015
113193,119200,1192,Cuesta College,San Luis Obispo,CA,93403-8106,Western Association of Schools and Colleges Accrediting Commission for Community and Junior Colleges,https://www.cuesta.edu/,https://misweb.cccco.edu/npc/641/npcalc.htm,2,1,1,1,2,1,6,8,23,NULL,35.331276,-120.742235,NULL,NULL,7951,25.20699589,0.120987654,0.532921811,0.011522634,0.428571429
113218,2111300,21113,Cuyamaca College,El Cajon,CA,92019,Western Association of Schools and Colleges Accrediting Commission for Community and Junior Colleges,https://www.cuyamaca.edu/,https://misweb.cccco.edu/npc/021/npcalc.htm,2,1,1,2,2,1,6,8,21,NULL,32.744954,-116.943507,NULL,NULL,7473,29.28817649,0.328162703,0.46363323,0.004481213,0.610113422
113236,119300,1193,Cypress College,Cypress,CA,90630-5897,Western Association of Schools and Colleges Accrediting Commission for Community and Junior Colleges,www.cypresscollege.edu/,www.cypresscollege.edu/NetPriceCalculator/npcalc.htm,2,1,1,1,3,1,6,8,21,NULL,33.82833,-118.025143,NULL,NULL,14390,23.84943243,0.079031913,0.626044121,0.008138788,0.535883831
113333,448000,4480,De Anza College,Cupertino,CA,95014,Western Association of Schools and Colleges Accrediting Commission for Community and Junior Colleges,www.deanza.edu/,https://misweb.cccco.edu/npc/421/npcalc.htm,2,1,1,2,2,1,6,8,13,NULL,37.319914,-122.045783,NULL,NULL,16822,22.93180723,0.06626506,0.700240964,0.00746988,0.520590043
113449,3964400,39644,International School of Beauty Inc,Palm Desert,CA,92260-2740,National Accrediting Commission of Career Arts and Sciences,https://btyschool.com/,btyschool.com/tution/,1,1,1,1,1,3,6,8,13,NULL,33.729555,-116.403928,NULL,NULL,143,27.35714286,0.166666667,0.388888889,PrivacySuppressed,0.651933702
113537,3025600,30256,Dell'Arte International School of Physical Theatre,Blue Lake,CA,95525-0816,National Association of Schools of Theatre,www.dellarte.com/school,https://www.dellarte.com/school-of-physical-theatre/tuition/,1,1,1,1,4,2,6,8,41,NULL,40.880924,-123.988808,NULL,NULL,18,PrivacySuppressed,PrivacySuppressed,PrivacySuppressed,PrivacySuppressed,PrivacySuppressed
113573,118200,1182,College of the Desert,Palm Desert,CA,92260,Western Association of Schools and Colleges Accrediting Commission for Community and Junior Colleges,www.collegeofthedesert.edu/,https://misweb.cccco.edu/npc/931/npcalc.htm,2,1,1,2,2,1,6,8,13,NULL,33.732108,-116.388271,NULL,NULL,10936,23.9755142,0.094270323,0.621204701,0.007835455,0.621286321
113582,2298000,22980,Design Institute of San Diego,San Diego,CA,92121,Western Association of Schools and Colleges Senior Colleges and University Commission,www.disd.edu/,https://disd.studentaidcalculator.com/survey.aspx,3,1,1,3,3,3,6,8,11,NULL,32.880926,-117.167374,0.8667,0.8667,121,26.63235294,0.220588235,0.352941177,PrivacySuppressed,PrivacySuppressed
113634,119100,1191,Diablo Valley College,Pleasant Hill,CA,94523,Western Association of Schools and Colleges Accrediting Commission for Community and Junior Colleges,https://www.dvc.edu/,https://misweb.cccco.edu/npc/312/npcalc.htm,2,1,1,2,2,1,6,8,21,NULL,37.968516,-122.073142,NULL,NULL,17721,24.93876405,0.118820225,0.550280899,0.016573034,0.453183521
113698,119600,1196,Dominican University of California,San Rafael,CA,94901-2298,Western Association of Schools and Colleges Senior Colleges and University Commission,https://www.dominican.edu/,https://dominican.studentaidcalculator.com/survey.aspx,3,1,1,3,4,2,6,8,13,NULL,37.981279,-122.512051,0.9134,0.9134,1444,21.48295455,0.03219697,0.859848485,PrivacySuppressed,0.306122449
113704,129600,1296,Dominican School of Philosophy & Theology,Berkeley,CA,94708-1816,Western Association of Schools and Colleges Senior Colleges and University Commission,https://www.dspt.edu/,https://www.dspt.edu/tuition-and-fees,3,1,1,4,4,2,6,8,12,NULL,37.881099,-122.264612,NULL,NULL,NULL,NULL,NULL,NULL,NULL,NULL
113856,2226000,22260,East Los Angeles College,Monterey Park,CA,91754-6099,Western Association of Schools and Colleges Accrediting Commission for Community and Junior Colleges,www.elac.edu/,https://misweb.cccco.edu/npc/748/npcalc.htm,1,1,1,1,2,1,6,8,21,NULL,34.040531,-118.148785,NULL,NULL,31156,23.33130699,0.068895643,0.664007092,0.005952381,0.685203189
113980,119700,1197,El Camino Community College District,Torrance,CA,90506,Western Association of Schools and Colleges Accrediting Commission for Community and Junior Colleges,www.elcamino.edu/,www.finaid.org/calculators/studentbudget.phtml,2,1,1,2,2,1,6,8,21,NULL,33.885229,-118.329913,NULL,NULL,20687,23.45823559,0.055175931,0.664966854,0.004589495,0.565500289
114114,2609000,26090,Emperor's College of Traditional Oriental Medicine,Santa Monica,CA,90403,Accrediting Commission for Acupuncture and Oriental Medicine,www.emperors.edu/,NULL,3,1,1,4,4,3,6,8,13,NULL,34.030438,-118.485119,NULL,NULL,NULL,NULL,NULL,NULL,NULL,NULL
114123,903200,9032,Empire College,Santa Rosa,CA,95403-2126,Accrediting Council for Independent Colleges and Schools,www.empcol.edu/,https://empcol.edu/files/empire/GE2017/NetPriceCalculator/npcalc.htm,1,1,1,1,4,3,6,8,12,NULL,38.468052,-122.729337,NULL,NULL,299,27.30263158,0.197368421,0.348684211,PrivacySuppressed,0.532110092
114266,1245200,12452,Evergreen Valley College,San Jose,CA,95135-1598,Western Association of Schools and Colleges Accrediting Commission for Community and Junior Colleges,www.evc.edu/,https://misweb.cccco.edu/npc/471/npcalc.htm,2,1,1,2,2,1,6,8,11,NULL,37.30167,-121.76561,NULL,NULL,8059,26.27067977,0.156429156,0.563882064,0.004095004,0.637315271
114354,1111200,11112,FIDM-Fashion Institute of Design & Merchandising-Los Angeles,Los Angeles,CA,90015-1421,Western Association of Schools and Colleges Senior Colleges and University Commission,www.fidm.edu/,https://npc.collegeboard.org/student/app/fidm,2,1,4,2,4,3,6,8,11,NULL,34.044209,-118.25993,0.3624,0.3659,2195,21.5184953,0.026959248,0.815047022,PrivacySuppressed,0.301587302
114390,1111202,11112,FIDM-Fashion Institute of Design & Merchandising-San Francisco,San Francisco,CA,94108-5805,Western Association of Schools and Colleges Senior Colleges and University Commission,www.fidm.edu/,https://npc.collegeboard.org/student/app/fidm,2,0,4,2,3,3,6,8,11,NULL,37.786353,-122.406651,0.4061,0.3659,188,21.5184953,0.026959248,0.815047022,PrivacySuppressed,0.301587302
114433,859700,8597,Feather River Community College District,Quincy,CA,95971-9124,Western Association of Schools and Colleges Accrediting Commission for Community and Junior Colleges,www.frc.edu/,https://misweb.cccco.edu/npc/121/npcalc.htm,2,1,1,2,3,1,6,8,41,NULL,39.953101,-120.973067,NULL,NULL,1251,23.13062099,0.055674518,0.65738758,PrivacySuppressed,0.484337349
114460,725300,7253,Federico Beauty Institute,Sacramento,CA,95834,National Accrediting Commission of Career Arts and Sciences,federico.edu/,www.federico.edu/disclosures,1,1,1,1,1,3,6,8,21,NULL,38.64883,-121.497761,NULL,NULL,326,25.38190955,0.173366834,0.444723618,PrivacySuppressed,0.471153846
114549,2096100,20961,Fielding Graduate University,Santa Barbara,CA,93105-3538,Western Association of Schools and Colleges Senior Colleges and University Commission,www.fielding.edu/,www.fielding.edu/how-to-apply/tuition-financial-aid/,3,1,1,4,4,2,6,8,13,NULL,34.42941,-119.717161,NULL,NULL,NULL,NULL,NULL,NULL,NULL,NULL
114585,3131300,31313,Five Branches University,Santa Cruz,CA,95062,Accrediting Commission for Acupuncture and Oriental Medicine,www.fivebranches.edu/,www.fivebranches.edu/,3,1,2,4,4,3,6,8,22,NULL,36.964348,-121.998245,NULL,NULL,NULL,PrivacySuppressed,PrivacySuppressed,PrivacySuppressed,PrivacySuppressed,PrivacySuppressed
114637,720900,7209,Redondo Beach Beauty College,Redondo Beach,CA,90278-3111,National Accrediting Commission of Career Arts and Sciences,rbbeautycollege.com/,https://login.homesteadschools.com/rbbcalc/,1,1,1,1,1,3,6,8,21,NULL,33.873098,-118.372137,NULL,NULL,76,31.525,0.4,0.275,PrivacySuppressed,PrivacySuppressed
114716,119900,1199,Foothill College,Los Altos Hills,CA,94022,Western Association of Schools and Colleges Accrediting Commission for Community and Junior Colleges,https://foothill.edu/,https://misweb.cccco.edu/npc/422/npcalc.htm,2,1,1,2,3,1,6,8,21,NULL,37.361655,-122.127964,NULL,NULL,13263,25.27622595,0.094351335,0.496585971,0.015518312,0.498857578
114734,1179200,11792,Franciscan School of Theology,San Diego,CA,92110,Western Association of Schools and Colleges Senior Colleges and University Commission,www.fst.edu/,www.fst.edu/future-students/tuition-and-fees/,NULL,1,2,4,4,2,6,8,11,NULL,32.770816,-117.192073,NULL,NULL,NULL,NULL,NULL,NULL,NULL,NULL
114761,2230900,22309,Fredrick and Charles Beauty College,Eureka,CA,95501,National Accrediting Commission of Career Arts and Sciences,www.fandcbeauty.com/,www.fandcbeauty.com/,1,1,1,1,1,3,6,8,33,NULL,40.798885,-124.164986,NULL,NULL,55,25.68852459,PrivacySuppressed,0.344262295,PrivacySuppressed,PrivacySuppressed
114789,130700,1307,Fresno City College,Fresno,CA,93741,Western Association of Schools and Colleges Accrediting Commission for Community and Junior Colleges,www.fresnocitycollege.edu/,https://misweb.cccco.edu/npc/571/npcalc.htm,2,1,1,2,2,1,6,8,11,NULL,36.768164,-119.796096,NULL,NULL,21234,23.22880172,0.083396024,0.663621709,0.006448146,0.522885101
114813,125300,1253,Fresno Pacific University,Fresno,CA,93702-4709,Western Association of Schools and Colleges Senior Colleges and University Commission,www.fresno.edu/,https://tcc.noellevitz.com/(S(2udqcz4v5juwacioemspbydx))/Fresno Pacific University/Freshman Students,3,1,1,3,4,2,6,8,11,NULL,36.726831,-119.735199,0.6608,0.6608,2872,28.67353952,0.283505155,0.323024055,0.009163803,0.465763195
114840,120000,1200,Fuller Theological Seminary,Pasadena,CA,91182,Western Association of Schools and Colleges Senior Colleges and University Commission,www.fuller.edu/,fuller.edu/paying-for-grad-school/,3,1,1,4,4,2,6,8,12,NULL,34.14778,-118.140261,NULL,NULL,NULL,PrivacySuppressed,PrivacySuppressed,PrivacySuppressed,PrivacySuppressed,PrivacySuppressed
114859,120100,1201,Fullerton College,Fullerton,CA,92832-2095,Western Association of Schools and Colleges Accrediting Commission for Community and Junior Colleges,www.fullcoll.edu/,https://misweb.cccco.edu/npc/862/npcalc.htm,2,1,1,2,2,1,6,8,21,NULL,33.875514,-117.918255,NULL,NULL,20474,22.97108503,0.055396507,0.682937303,0.008302319,0.532743036
114938,120200,1202,Gavilan College,Gilroy,CA,95020,Western Association of Schools and Colleges Accrediting Commission for Community and Junior Colleges,https://www.gavilan.edu/,https://www.gavilan.edu/finaid/1819_cost_estimates.php,1,1,1,1,2,1,6,8,23,NULL,36.972627,-121.569842,NULL,NULL,4719,23.7534626,0.094875346,0.592797784,0.00900277,0.5640553
114947,2231900,22319,Gemological Institute of America-Carlsbad,Carlsbad,CA,92008,Accrediting Commission of Career Schools and Colleges,www.gia.edu/gem-education,www.gia.edu/net-price-calculator,1,1,2,1,1,2,6,8,12,NULL,33.131313,-117.318765,NULL,NULL,167,29.03968254,0.174603175,0.253968254,PrivacySuppressed,0.333333333
115001,120300,1203,Glendale Community College,Glendale,CA,91208-2894,Western Association of Schools and Colleges Accrediting Commission for Community and Junior Colleges,https://www.glendale.edu/,https://misweb.cccco.edu/npc/731/npcalc.htm,2,1,1,2,2,1,6,8,12,NULL,34.16745,-118.227666,NULL,NULL,12304,27.10962145,0.205835962,0.572555205,0.00670347,0.601828967
115010,2338500,23385,Glendale Career College,Glendale,CA,91203,Accrediting Bureau of Health Education Schools,www.success.edu/,nw.edu/ecamp/npc-nwc/npcalc.htm,1,1,3,1,2,3,6,8,12,NULL,34.149771,-118.254719,NULL,NULL,611,28.02141328,0.184154176,0.355460385,PrivacySuppressed,0.551724138
115083,120500,1205,Golden Gate University-San Francisco,San Francisco,CA,94105-2968,Western Association of Schools and Colleges Senior Colleges and University Commission,www.ggu.edu/,www.ggu.edu/undergraduate/enrollment/financial-aid/net-price-calculator,3,1,3,3,4,2,6,8,11,NULL,37.789374,-122.398969,NULL,NULL,487,33.2748538,0.315789474,0.070175439,PrivacySuppressed,0.52739726
115126,120600,1206,Golden West College,Huntington Beach,CA,92647-2710,Western Association of Schools and Colleges Accrediting Commission for Community and Junior Colleges,www.goldenwestcollege.edu/,https://misweb.cccco.edu/npc/832/npcalc.htm,1,1,1,2,2,1,6,8,21,NULL,33.732531,-118.002568,NULL,NULL,10863,23.92173647,0.095077958,0.652705595,0.006725772,0.533719487
115214,120700,1207,Graduate Theological Union,Berkeley,CA,94709,Commission on Accrediting of the Association of Theological Schools,www.gtu.edu/,www.gtu.edu/,NULL,1,1,4,4,2,6,8,12,NULL,37.87554,-122.261847,NULL,NULL,NULL,PrivacySuppressed,PrivacySuppressed,PrivacySuppressed,PrivacySuppressed,PrivacySuppressed
