UNITID,OPEID,OPEID6,INSTNM,CITY,STABBR,ZIP,ACCREDAGENCY,INSTURL,MAIN,NUMBRANCH,PREDDEG,HIGHDEG,ST_FIPS,REGION,LOCALE,LATITUDE,LONGITUDE,ADM_RATE
100654,100200,1002,Alabama A & M University,Normal,AL,35762,Southern Association of Colleges and Schools Commission on Colleges,www.aamu.edu/,1,1,3,4,1,5,12,34.783368,-86.568502,0.9175
100663,105200,1052,University of Alabama at Birmingham,Birmingham,AL,35294-0110,Southern Association of Colleges and Schools Commission on Colleges,https://www.uab.edu/,1,1,3,4,1,5,12,33.505697,-86.799345,0.7366
100690,2503400,25034,Amridge University,Montgomery,AL,36117-3553,Southern Association of Colleges and Schools Commission on Colleges,www.amridgeuniversity.edu/,1,1,2,4,1,5,12,32.362609,-86.17401,NULL
100706,105500,1055,University of Alabama in Huntsville,Huntsville,AL,35899,Southern Association of Colleges and Schools Commission on Colleges,www.uah.edu/,1,1,3,4,1,5,12,34.724557,-86.640449,0.8257
100724,100500,1005,Alabama State University,Montgomery,AL,36104-0271,Southern Association of Colleges and Schools Commission on Colleges,www.alasu.edu/,1,1,3,4,1,5,12,32.364317,-86.295677,0.969
100751,105100,1051,The University of Alabama,Tuscaloosa,AL,35487-0100,Southern Association of Colleges and Schools Commission on Colleges,www.ua.edu/,1,1,3,4,1,5,12,33.211875,-87.545978,0.8268
100760,100700,1007,Central Alabama Community College,Alexander City,AL,35010,Southern Association of Colleges and Schools Commission on Colleges,www.cacc.edu/,1,1,2,2,1,5,32,32.92478,-85.945266,NULL
100812,100800,1008,Athens State University,Athens,AL,35611,Southern Association of Colleges and Schools Commission on Colleges,www.athens.edu/,1,1,3,4,1,5,31,34.806793,-86.964698,NULL
100830,831000,8310,Auburn University at Montgomery,Montgomery,AL,36117-3596,Southern Association of Colleges and Schools Commission on Colleges,www.aum.edu/,1,1,3,4,1,5,12,32.36736,-86.177544,0.9044
100858,100900,1009,Auburn University,Auburn,AL,36849,Southern Association of Colleges and Schools Commission on Colleges,www.auburn.edu/,1,1,3,4,1,5,13,32.599378,-85.488258,0.8067
100937,101200,1012,Birmingham-Southern College,Birmingham,AL,35254,Southern Association of Colleges and Schools Commission on Colleges,www.bsc.edu/,1,1,3,3,1,5,12,33.513774,-86.850552,0.5381
101028,1218200,12182,Chattahoochee Valley Community College,Phenix City,AL,36869,Southern Association of Colleges and Schools Commission on Colleges,www.cv.edu/,1,1,2,2,1,5,41,32.42391,-85.031485,NULL
101116,1303906,13039,South University-Montgomery,Montgomery,AL,36116,Southern Association of Colleges and Schools Commission on Colleges,"www.southuniversity.edu/montgomery#location=Montgomery, AL",0,9,3,4,1,5,12,32.342684,-86.216488,NULL
101143,101500,1015,Enterprise State Community College,Enterprise,AL,36330-1300,Southern Association of Colleges and Schools Commission on Colleges,www.escc.edu/,1,1,1,2,1,5,32,31.297496,-85.836956,NULL
101161,106000,1060,Coastal Alabama Community College,Bay Minette,AL,36507-2698,Southern Association of Colleges and Schools Commission on Colleges,www.coastalalabama.edu/,1,1,2,2,1,5,32,30.851343,-87.778193,NULL
101189,100300,1003,Faulkner University,Montgomery,AL,36109-3390,Southern Association of Colleges and Schools Commission on Colleges,www.faulkner.edu/,1,1,3,4,1,5,12,32.384181,-86.21641,0.7833
101240,101700,1017,Gadsden State Community College,Gadsden,AL,35903,Southern Association of Colleges and Schools Commission on Colleges,www.gadsdenstate.edu/,1,1,2,2,1,5,13,33.994001,-85.991438,NULL
101277,4187200,41872,New Beginning College of Cosmetology,Albertville,AL,35951,National Accrediting Commission of Career Arts and Sciences,www.nbccosmetology.com/,1,1,1,1,1,5,32,34.27871,-86.196931,NULL
101286,101800,1018,George C Wallace Community College-Dothan,Dothan,AL,36303-9234,Southern Association of Colleges and Schools Commission on Colleges,www.wallace.edu/,1,1,1,2,1,5,13,31.315274,-85.465836,NULL
101295,787100,7871,George C Wallace State Community College-Hanceville,Hanceville,AL,35077-2000,Southern Association of Colleges and Schools Commission on Colleges,www.wallacestate.edu/,1,1,1,2,1,5,32,34.072439,-86.781935,NULL
101301,569900,5699,George C Wallace State Community College-Selma,Selma,AL,36703-2808,Southern Association of Colleges and Schools Commission on Colleges,www.wccs.edu/,1,1,2,2,1,5,32,32.445917,-87.013294,NULL
101365,962107,9621,Herzing University-Birmingham,Birmingham,AL,35209,Higher Learning Commission,https://www.herzing.edu/,0,9,1,4,1,5,21,33.468466,-86.832465,0.7826
101435,101900,1019,Huntingdon College,Montgomery,AL,36106-2148,Southern Association of Colleges and Schools Commission on Colleges,www.huntingdon.edu/,1,1,3,3,1,5,12,32.351034,-86.284366,0.5929
101453,2199700,21997,Heritage Christian University,Florence,AL,35630-9977,Association for Bibical Higher Educaiton,www.hcu.edu/,1,1,3,4,1,5,13,34.856153,-87.663051,0.2353
101462,526000,5260,J. F. Drake State Community and Technical College,Huntsville,AL,35811,Southern Association of Colleges and Schools Commission on Colleges,https://www.drakestate.edu/,1,1,1,2,1,5,12,34.771858,-86.572885,NULL
101471,3002500,30025,J F Ingram State Technical College,Deatsville,AL,36022,Council on Occupational Education,www.istc.edu/,1,1,1,1,1,5,21,32.582312,-86.392369,NULL
101480,102000,1020,Jacksonville State University,Jacksonville,AL,36265,Southern Association of Colleges and Schools Commission on Colleges,www.jsu.edu/,1,1,3,4,1,5,23,33.822938,-85.765321,0.5479
101505,102200,1022,Jefferson State Community College,Birmingham,AL,35215-3098,Southern Association of Colleges and Schools Commission on Colleges,www.jeffersonstate.edu/,1,1,2,2,1,5,12,33.652535,-86.707233,NULL
101514,101300,1013,John C Calhoun State Community College,Tanner,AL,35671,Southern Association of Colleges and Schools Commission on Colleges,https://calhoun.edu/,1,1,1,2,1,5,41,34.645844,-86.949674,NULL
101541,102300,1023,Judson College,Marion,AL,36756,Southern Association of Colleges and Schools Commission on Colleges,www.judson.edu/,1,1,3,3,1,5,43,32.629253,-87.315206,0.3724
101569,105900,1059,Lawson State Community College,Birmingham,AL,35221-1717,Southern Association of Colleges and Schools Commission on Colleges,www.lawsonstate.edu/,1,1,1,2,1,5,12,33.450814,-86.888844,NULL
101587,102400,1024,University of West Alabama,Livingston,AL,35470,Southern Association of Colleges and Schools Commission on Colleges,www.uwa.edu/,1,1,3,4,1,5,43,32.588132,-88.186329,0.3493
101602,898800,8988,Lurleen B Wallace Community College,Andalusia,AL,36420-1224,Southern Association of Colleges and Schools Commission on Colleges,https://www.lbwcc.edu/,1,1,2,2,1,5,41,31.322947,-86.452262,NULL
101648,102600,1026,Marion Military Institute,Marion,AL,36756-3207,Southern Association of Colleges and Schools Commission on Colleges,www.marionmilitary.edu/,1,1,2,2,1,5,43,32.623734,-87.322041,0.5761
101675,102800,1028,Miles College,Fairfield,AL,35064-2621,Southern Association of Colleges and Schools Commission on Colleges,www.miles.edu/,1,1,3,3,1,5,21,33.482442,-86.908751,NULL
101693,102900,1029,University of Mobile,Mobile,AL,36613-2842,Southern Association of Colleges and Schools Commission on Colleges,www.umobile.edu/,1,1,3,4,1,5,41,30.793247,-88.128934,0.4566
101709,100400,1004,University of Montevallo,Montevallo,AL,35115-6000,Southern Association of Colleges and Schools Commission on Colleges,www.montevallo.edu/,1,1,3,4,1,5,21,33.10625,-86.865099,0.532
101736,569700,5697,Northwest-Shoals Community College,Muscle Shoals,AL,35661,Southern Association of Colleges and Schools Commission on Colleges,https://www.nwscc.edu/,1,1,1,2,1,5,13,34.739788,-87.678089,NULL
101879,101600,1016,University of North Alabama,Florence,AL,35632-0001,Southern Association of Colleges and Schools Commission on Colleges,www.una.edu/,1,1,3,4,1,5,13,34.806738,-87.681361,0.8878
101897,103100,1031,Northeast Alabama Community College,Rainsville,AL,35986,Southern Association of Colleges and Schools Commission on Colleges,https://www.nacc.edu/,1,1,1,2,1,5,42,34.545471,-85.911664,NULL
101912,103300,1033,Oakwood University,Huntsville,AL,35896,Southern Association of Colleges and Schools Commission on Colleges,https://www2.oakwood.edu/,1,1,3,4,1,5,12,34.756344,-86.652705,0.6473
101994,569200,5692,Reid State Technical College,Evergreen,AL,36401,Council on Occupational Education,www.rstc.edu/,1,1,1,2,1,5,41,31.460265,-86.964797,NULL
102030,103000,1030,Bishop State Community College,Mobile,AL,36603-5898,Southern Association of Colleges and Schools Commission on Colleges,www.bishop.edu/,1,1,1,2,1,5,12,30.693972,-88.056982,NULL
102049,103600,1036,Samford University,Birmingham,AL,35229-2240,Southern Association of Colleges and Schools Commission on Colleges,www.samford.edu/,1,1,3,4,1,5,21,33.464128,-86.791799,0.8331
102058,4067300,40673,Selma University,Selma,AL,36701,NULL,selmauniversity.edu/,1,1,3,4,1,5,32,32.420387,-87.032392,NULL
102067,569100,5691,Shelton State Community College,Tuscaloosa,AL,35405-8522,Southern Association of Colleges and Schools Commission on Colleges,www.sheltonstate.edu/,1,1,2,2,1,5,12,33.120531,-87.56148,NULL
102076,103800,1038,Snead State Community College,Boaz,AL,35957-0734,Southern Association of Colleges and Schools Commission on Colleges,www.snead.edu/,1,1,2,2,1,5,32,34.201495,-86.169897,NULL
102094,105700,1057,University of South Alabama,Mobile,AL,36688-0002,Southern Association of Colleges and Schools Commission on Colleges,www.southalabama.edu/,1,1,3,4,1,5,12,30.696033,-88.178711,0.7869
102234,104100,1041,Spring Hill College,Mobile,AL,36608-1791,Southern Association of Colleges and Schools Commission on Colleges,www.shc.edu/,1,1,3,4,1,5,12,30.694751,-88.138199,0.4978
102270,104400,1044,Stillman College,Tuscaloosa,AL,35401,Southern Association of Colleges and Schools Commission on Colleges,https://stillman.edu/,1,1,3,3,1,5,12,33.200006,-87.585278,0.3296
102298,104600,1046,Talladega College,Talladega,AL,35160,Southern Association of Colleges and Schools Commission on Colleges,www.talladega.edu/,1,1,3,3,1,5,32,33.433472,-86.112704,NULL
102313,573400,5734,H Councill Trenholm State Community College,Montgomery,AL,36108-3199,Southern Association of Colleges and Schools Commission on Colleges,www.trenholmstate.edu/,1,1,1,2,1,5,12,32.350109,-86.343057,NULL
102368,104700,1047,Troy University,Troy,AL,36082-0001,Southern Association of Colleges and Schools Commission on Colleges,www.troy.edu/,1,4,3,4,1,5,33,31.800672,-85.957094,0.8757
102377,105000,1050,Tuskegee University,Tuskegee,AL,36088-1920,Southern Association of Colleges and Schools Commission on Colleges,www.tuskegee.edu/,1,1,3,4,1,5,32,32.4309,-85.708492,0.5173
102395,2170600,21706,United States Sports Academy,Daphne,AL,36526-7055,Southern Association of Colleges and Schools Commission on Colleges,www.ussa.edu/,1,1,3,4,1,5,13,30.639329,-87.91163,NULL
102429,573300,5733,Bevill State Community College,Jasper,AL,35501,Southern Association of Colleges and Schools Commission on Colleges,www.bscc.edu/,1,1,1,2,1,5,32,33.836929,-87.266406,NULL
102553,1146200,11462,University of Alaska Anchorage,Anchorage,AK,99508,Northwest Commission on Colleges and Universities,www.uaa.alaska.edu/,1,1,3,4,2,8,11,61.190163,-149.82619,0.8296
102580,884300,8843,Alaska Bible College,Palmer,AK,99645,Association for Bibical Higher Educaiton,www.akbible.edu/,1,1,3,3,2,8,32,61.598553,-149.111972,NULL
102614,106300,1063,University of Alaska Fairbanks,Fairbanks,AK,99775,Northwest Commission on Colleges and Universities,www.uaf.edu/,1,1,3,4,2,8,23,64.85756,-147.823146,0.7599
102632,106500,1065,University of Alaska Southeast,Juneau,AK,99801-8697,Northwest Commission on Colleges and Universities,www.uas.alaska.edu/,1,1,1,4,2,8,33,58.384846,-134.638255,0.6057
102669,106100,1061,Alaska Pacific University,Anchorage,AK,99508,Northwest Commission on Colleges and Universities,www.alaskapacific.edu/,1,1,3,4,2,8,11,61.190968,-149.804168,0.8924
102711,3160300,31603,Alaska Vocational Technical Center,Seward,AK,99664-0889,Council on Occupational Education,www.avtec.edu/,1,1,1,1,2,8,43,60.110626,-149.444487,NULL
102845,2576900,25769,Charter College,Vancouver,WA,98683-7575,Accrediting Bureau of Health Education Schools,https://www.chartercollege.edu/,1,1,1,3,53,8,12,45.617798,-122.494766,NULL
103501,2541000,25410,Alaska Career College,Anchorage,AK,99507-1033,Accrediting Commission of Career Schools and Colleges,www.alaskacareercollege.edu/,1,1,1,2,2,8,11,61.181443,-149.856954,NULL
103741,966403,9664,Empire Beauty School-Tucson,Tucson,AZ,85716,National Accrediting Commission of Career Arts and Sciences,www.empire.edu/,0,11,1,1,4,6,11,32.235657,-110.927187,NULL
103893,2100600,21006,Carrington College-Phoenix North,Phoenix,AZ,85051-4063,Western Association of Schools and Colleges Accrediting Commission for Community and Junior Colleges,https://carrington.edu/,1,3,1,2,4,6,11,33.565758,-112.104601,NULL
103945,3120300,31203,CollegeAmerica-Flagstaff,Flagstaff,AZ,86001,NULL,www.collegeamerica.edu/,1,3,2,2,4,6,13,35.194495,-111.657673,NULL
103954,886400,8864,Arizona Academy of Beauty-East,Tucson,AZ,85712,National Accrediting Commission of Career Arts and Sciences,www.arizonaacademy.com/,1,1,1,1,4,6,11,32.237253,-110.872305,NULL
103963,2306807,23068,Platt College-Arizona Automotive Institute Arizona,Glendale,AZ,85301-3579,Accrediting Commission of Career Schools and Colleges,www.aai.edu/,0,23,1,1,4,6,21,33.537249,-112.157344,NULL
104090,2218800,22188,Brookline College-Phoenix,Phoenix,AZ,85021,Accrediting Bureau of Health Education Schools,www.brooklinecollege.edu/,1,4,1,4,4,6,11,33.566102,-112.112473,NULL
104151,108100,1081,Arizona State University Campus Immersion,Tempe,AZ,85287,Higher Learning Commission,www.asu.edu/,1,13,3,4,4,6,12,33.417721,-111.934383,0.8647
104160,107100,1071,Arizona Western College,Yuma,AZ,85365-8834,Higher Learning Commission,www.azwestern.edu/,1,1,1,2,4,6,13,32.689306,-114.495968,NULL
104179,108300,1083,University of Arizona,Tucson,AZ,85721-0066,Higher Learning Commission,https://www.arizona.edu/,1,2,3,4,4,6,11,32.232672,-110.950815,0.8459
104188,2491500,24915,Southwest University of Visual Arts-Tucson,Tucson,AZ,85701,NULL,www.suva.edu/,1,2,3,4,4,6,11,32.221702,-110.970838,NULL
104346,728300,7283,Central Arizona College,Coolidge,AZ,85128-9030,Higher Learning Commission,www.centralaz.edu/,1,1,1,2,4,6,41,32.957092,-111.652501,NULL
104391,2280500,22805,Charles of Italy Beauty College,Lake Havasu City,AZ,86403,National Accrediting Commission of Career Arts and Sciences,www.charlesofitaly.edu/,1,1,1,1,4,6,13,34.477485,-114.332686,NULL
104425,107200,1072,Cochise County Community College District,Sierra Vista,AZ,85635-2317,Higher Learning Commission,https://www.cochise.edu/,1,1,2,2,4,6,13,31.564597,-110.246946,NULL
104434,1054207,10542,Empire Beauty School-Flagstaff,Flagstaff,AZ,86004,NULL,www.empire.edu/,0,14,1,1,4,6,13,35.197151,-111.625936,NULL
104443,1054208,10542,Empire Beauty School-Chandler,Chandler,AZ,85224,National Accrediting Commission of Career Arts and Sciences,www.empire.edu/,0,14,1,1,4,6,11,33.347586,-111.860423,NULL
104568,1085800,10858,Avalon School of Cosmetology-Mesa,Mesa,AZ,85210,National Accrediting Commission of Career Arts and Sciences,avalon.edu/locations/mesa-az/,1,3,1,1,4,6,11,33.376583,-111.858305,NULL
104577,107300,1073,Eastern Arizona College,Thatcher,AZ,85552-0769,Higher Learning Commission,www.eac.edu/,1,1,1,2,4,6,33,32.843664,-109.76234,NULL
104586,147902,1479,Embry-Riddle Aeronautical University-Prescott,Prescott,AZ,86301-3720,Southern Association of Colleges and Schools Commission on Colleges,prescott.erau.edu/,0,2,3,4,4,6,41,34.616766,-112.449741,0.657
104665,2533200,25332,The School of Architecture,Paradise Valley,AZ,85253,Higher Learning Commission,https://theschoolofarchitecture.edu/,1,1,4,4,4,6,21,33.566649,-111.941953,NULL
104708,107600,1076,Glendale Community College,Glendale,AZ,85302,Higher Learning Commission,www.gccaz.edu/,1,1,1,2,4,6,21,33.570226,-112.190735,NULL
104717,107400,1074,Grand Canyon University,Phoenix,AZ,85017,Higher Learning Commission,www.gcu.edu/,1,1,3,4,4,6,11,33.513231,-112.129929,0.7694
105145,830300,8303,GateWay Community College,Phoenix,AZ,85034,Higher Learning Commission,www.gatewaycc.edu/,1,2,1,2,4,6,11,33.449686,-111.997077,NULL
105154,107700,1077,Mesa Community College,Mesa,AZ,85202,Higher Learning Commission,www.mesacc.edu/,1,1,1,2,4,6,11,33.390323,-111.871255,NULL
105206,1186400,11864,Mohave Community College,Kingman,AZ,86409-1238,Higher Learning Commission,https://www.mohave.edu/,1,1,1,2,4,6,41,35.270996,-114.029838,NULL
105215,2100500,21005,Universal Technical Institute of Arizona Inc-Motorcycle Mechanics Institute Division,Phoenix,AZ,85027,Accrediting Commission of Career Schools and Colleges,www.uti.edu/,1,3,1,1,4,6,11,33.684428,-112.121336,NULL
105297,824600,8246,Dine College,Tsaile,AZ,86556,Higher Learning Commission,https://www.dinecollege.edu/,1,1,2,3,4,6,43,36.293328,-109.21684,NULL
105330,108200,1082,Northern Arizona University,Flagstaff,AZ,86011-4092,Higher Learning Commission,https://nau.edu/,1,1,3,4,4,6,13,35.188449,-111.653724,0.8489
105349,1186200,11862,Northland Pioneer College,Holbrook,AZ,86025-0610,Higher Learning Commission,www.npc.edu/,1,1,1,2,4,6,41,34.93031,-110.142199,NULL
105367,193701,1937,Ottawa University-Phoenix,Phoenix,AZ,85021,Higher Learning Commission,www.ottawa.edu/,0,5,3,4,4,6,11,33.572173,-112.113001,NULL
105428,107800,1078,Phoenix College,Phoenix,AZ,85013,Higher Learning Commission,www.phoenixcollege.edu/,1,1,2,2,4,6,11,33.481361,-112.088293,NULL
105525,726600,7266,Pima Community College,Tucson,AZ,85709-1275,Higher Learning Commission,www.pima.edu/,1,1,1,2,4,6,11,32.222125,-110.886659,NULL
105534,2217100,22171,Pima Medical Institute-Tucson,Tucson,AZ,85712,Accrediting Bureau of Health Education Schools,pmi.edu/,1,14,1,3,4,6,11,32.248067,-110.878783,NULL
105543,2217103,22171,Pima Medical Institute-Albuquerque,Albuquerque,NM,87110,NULL,pmi.edu/,0,14,1,2,35,6,11,35.104855,-106.59488,NULL
105589,2065300,20653,Prescott College,Prescott,AZ,86301,Higher Learning Commission,https://www.prescott.edu/,1,1,3,4,4,6,13,34.5452,-112.477185,0.9741
105659,1168900,11689,Refrigeration School Inc,Phoenix,AZ,85034-1816,Accrediting Commission of Career Schools and Colleges,https://www.rsi.edu/,1,1,1,2,4,6,11,33.448692,-111.989357,NULL
105668,2177500,21775,Rio Salado College,Tempe,AZ,85281,Higher Learning Commission,www.rio.maricopa.edu/,1,1,1,2,4,6,12,33.413309,-111.97417,NULL
105677,2113800,21138,Roberto-Venn School of Luthiery,Phoenix,AZ,85007,Accrediting Commission of Career Schools and Colleges,www.roberto-venn.com/,1,1,1,1,4,6,11,33.45489,-112.086161,NULL
105747,830400,8304,Scottsdale Community College,Scottsdale,AZ,85256,Higher Learning Commission,www.scottsdalecc.edu/,1,1,2,2,4,6,41,33.51135,-111.885186,NULL
105792,2146600,21466,South Mountain Community College,Phoenix,AZ,85042,Higher Learning Commission,www.southmountaincc.edu/,1,1,2,2,4,6,11,33.382406,-112.032635,NULL
105899,711300,7113,Arizona Christian University,Glendale,AZ,85306-3216,Higher Learning Commission,arizonachristian.edu/,1,1,3,3,4,6,21,33.622952,-112.181776,0.6793
106041,822100,8221,Universal Technical Institute of Arizona Inc,Avondale,AZ,85323,Accrediting Commission of Career Schools and Colleges,www.uti.edu/,1,6,2,2,4,6,22,33.453005,-112.288123,NULL
106111,945915,9459,Empire Beauty School-NW Phoenix,Phoenix,AZ,85051,National Accrediting Commission of Career Arts and Sciences,www.empire.edu/,0,10,1,1,4,6,11,33.538093,-112.118168,NULL
106148,107900,1079,Yavapai College,Prescott,AZ,86301,Higher Learning Commission,www.yc.edu/,1,1,1,2,4,6,13,34.547495,-112.453395,NULL
106245,110100,1101,University of Arkansas at Little Rock,Little Rock,AR,72204,Higher Learning Commission,ualr.edu/www/,1,1,3,4,5,5,12,34.723254,-92.339778,0.6582
106263,110900,1109,University of Arkansas for Medical Sciences,Little Rock,AR,72205-7199,Higher Learning Commission,www.uams.edu/,1,1,3,4,5,5,12,34.749048,-92.320046,NULL
106306,108700,1087,Arkansas Baptist College,Little Rock,AR,72202-6068,Higher Learning Commission,www.arkansasbaptist.edu/,1,1,3,3,5,5,12,34.734751,-92.290555,NULL
106315,3005100,30051,Arkansas Beauty School-Little Rock,Little Rock,AR,72209,National Accrediting Commission of Career Arts and Sciences,arkbeautyschool.com/,1,1,1,1,5,5,12,34.672171,-92.343366,NULL
106324,3997300,39973,Arkansas Beauty College,Russellville,AR,72801,Accrediting Commission of Career Schools and Colleges,https://www.arkansasbeautycollege.us/,1,1,1,1,5,5,33,35.27902,-93.135369,NULL
106342,108800,1088,Lyon College,Batesville,AR,72501,Higher Learning Commission,www.lyon.edu/,1,1,3,3,5,5,33,35.777619,-91.625354,0.444
106351,3023400,30234,Arkansas College of Barbering and Hair Design,North Little Rock,AR,72114,Accrediting Commission of Career Schools and Colleges,www.acbhd.edu/,1,2,1,1,5,5,13,34.753843,-92.266429,NULL
106360,2363500,23635,Arthur's Beauty College,Fort Smith,AR,72901-3342,National Accrediting Commission of Career Arts and Sciences,www.arthursbeautycollege.com/,1,2,1,1,5,5,13,35.379955,-94.410967,NULL
106397,110800,1108,University of Arkansas,Fayetteville,AR,72701,Higher Learning Commission,https://www.uark.edu/,1,1,3,4,5,5,13,36.070009,-94.176981,0.7709
106412,108600,1086,University of Arkansas at Pine Bluff,Pine Bluff,AR,71601,Higher Learning Commission,www.uapb.edu/,1,1,3,4,5,5,13,34.244031,-92.018683,0.4394
106449,109100,1091,Arkansas State University-Beebe,Beebe,AR,72012-1000,Higher Learning Commission,www.asub.edu/,1,1,1,2,5,5,31,35.074176,-91.895351,NULL
106458,109000,1090,Arkansas State University,Jonesboro,AR,72401,Higher Learning Commission,www.astate.edu/,1,1,3,4,5,5,13,35.842388,-90.679988,0.7991
106467,108900,1089,Arkansas Tech University,Russellville,AR,72801-2222,Higher Learning Commission,www.atu.edu/,1,1,3,4,5,5,33,35.293237,-93.13562,0.9474
106485,108500,1085,University of Arkansas at Monticello,Monticello,AR,71656,Higher Learning Commission,www.uamont.edu/,1,1,1,4,5,5,33,33.590909,-91.811153,NULL
106494,2538500,25385,Arthur's Beauty College,Jacksonville,AR,72076,National Accrediting Commission of Career Arts and Sciences,arthursbeautycollege.com/,1,2,1,1,5,5,21,34.891572,-92.102579,NULL
106546,3105200,31052,Baptist Health College Little Rock,Little Rock,AR,72210-2827,Accrediting Bureau of Health Education Schools,https://www.bhclr.edu/,1,1,2,2,5,5,12,34.713115,-92.40692,1
106625,2052200,20522,Black River Technical College,Pocahontas,AR,72455,Higher Learning Commission,www.blackrivertech.edu/,1,1,1,2,5,5,41,36.239793,-90.951033,NULL
106704,109200,1092,University of Central Arkansas,Conway,AR,72035-0001,Higher Learning Commission,www.uca.edu/,1,1,3,4,5,5,13,35.077945,-92.457672,0.9042
106713,109300,1093,Central Baptist College,Conway,AR,72034,Higher Learning Commission,www.cbc.edu/,1,1,3,3,5,5,13,35.083838,-92.445021,0.4
106795,2220900,22209,Cossatot Community College of the University of Arkansas,De Queen,AR,71832,Higher Learning Commission,www.cccua.edu/,1,1,1,2,5,5,41,34.043389,-94.3673,NULL
106810,109500,1095,Crowley's Ridge College,Paragould,AR,72450,Higher Learning Commission,www.crc.edu/,1,1,3,3,5,5,41,36.064845,-90.584395,NULL
106883,1226000,12260,East Arkansas Community College,Forrest City,AR,72335-2204,Higher Learning Commission,https://www.eacc.edu/,1,1,1,2,5,5,32,35.041655,-90.767726,NULL
106892,2272400,22724,Eastern College of Health Vocations-Little Rock,Little Rock,AR,72205,Accrediting Bureau of Health Education Schools,www.easterncollege.edu/,1,2,1,1,5,5,12,34.75128,-92.341891,NULL
106908,3124900,31249,Paul Mitchell the School-Little Rock,North Little Rock,AR,72117,National Accrediting Commission of Career Arts and Sciences,paulmitchell.edu/littlerock,1,1,1,1,5,5,13,34.789913,-92.222202,NULL
106980,1210500,12105,National Park College,Hot Springs,AR,71913,Higher Learning Commission,www.np.edu/,1,1,1,2,5,5,23,34.512687,-93.119248,NULL
106999,2073500,20735,University of Arkansas Community College-Batesville,Batesville,AR,72503-3350,Higher Learning Commission,www.uaccb.edu/,1,1,1,2,5,5,33,35.792923,-91.615852,NULL
107044,109700,1097,Harding University,Searcy,AR,72149-5615,Higher Learning Commission,www.harding.edu/,1,2,3,4,5,5,32,35.247386,-91.726143,0.6134
107071,109800,1098,Henderson State University,Arkadelphia,AR,71999-0001,Higher Learning Commission,https://www.hsu.edu/,1,1,3,4,5,5,32,34.128155,-93.059703,0.7564
107080,109900,1099,Hendrix College,Conway,AR,72032-3080,Higher Learning Commission,www.hendrix.edu/,1,1,3,4,5,5,13,35.101565,-92.443256,0.6996
107099,3007100,30071,Hot Springs Beauty College,Hot Springs,AR,71901,National Accrediting Commission of Career Arts and Sciences,hotspringsbeautycollege.com/,1,1,1,1,5,5,13,34.496057,-93.037277,NULL
107123,2330800,23308,Jefferson Regional Medical Center School of Nursing,Pine Bluff,AR,71603,Accrediting Bureau of Health Education Schools,www.jrmc.org/,1,1,2,2,5,5,13,34.187831,-92.018045,NULL
107141,110000,1100,John Brown University,Siloam Springs,AR,72761,Higher Learning Commission,www.jbu.edu/,1,1,3,4,5,5,32,36.189812,-94.560283,0.7577
107220,2341700,23417,Career Academy of Hair Design,Springdale,AR,72764-7128,National Accrediting Commission of Career Arts and Sciences,www.beautynwa.com/,1,5,1,1,5,5,13,36.167605,-94.12947,NULL
107293,1074100,10741,Academy of Salon and Spa,Fort Smith,AR,72901,National Accrediting Commission of Career Arts and Sciences,www.academysalonspa.com/,1,1,1,1,5,5,13,35.38097,-94.41616,NULL
107318,2348200,23482,Arkansas State University Mid-South,West Memphis,AR,72301-3829,Higher Learning Commission,www.asumidsouth.edu/,1,1,1,2,5,5,21,35.145736,-90.22285,NULL
107327,1286000,12860,Arkansas Northeastern College,Blytheville,AR,72316-1109,Higher Learning Commission,www.anc.edu/,1,1,1,2,5,5,41,35.898597,-89.921005,NULL
107442,2284200,22842,New Tyler Barber College Inc,North Little Rock,AR,72114-4973,Accrediting Commission of Career Schools and Colleges,newtylerbarbercollege.edu/,1,1,1,1,5,5,13,34.760085,-92.254171,NULL
107460,1226100,12261,North Arkansas College,Harrison,AR,72601-5508,Higher Learning Commission,www.northark.edu/,1,1,1,2,5,5,33,36.219909,-93.08844,NULL
107488,2073700,20737,Northwest Technical Institute,Springdale,AR,72764,Council on Occupational Education,www.nwti.edu/,1,1,1,1,5,5,13,36.178032,-94.115346,NULL
107512,110200,1102,Ouachita Baptist University,Arkadelphia,AR,71998-0001,Higher Learning Commission,www.obu.edu/,1,1,3,3,5,5,32,34.126093,-93.052471,0.6143
107521,997600,9976,Arkansas State University Three Rivers,Malvern,AR,72104-0816,Higher Learning Commission,www.asutr.edu/,1,1,1,2,5,5,31,34.378745,-92.821416,NULL
107549,2087000,20870,Ozarka College,Melbourne,AR,72556-0010,Higher Learning Commission,www.ozarka.edu/,1,1,1,2,5,5,43,36.053031,-91.896355,NULL
107558,109400,1094,University of the Ozarks,Clarksville,AR,72830,Higher Learning Commission,https://www.ozarks.edu/,1,1,3,3,5,5,33,35.476278,-93.467221,0.5019
107585,524500,5245,University of Arkansas Community College-Morrilton,Morrilton,AR,72110,Higher Learning Commission,www.uaccm.edu/,1,1,1,2,5,5,32,35.172136,-92.728507,0.7551
107600,110300,1103,Philander Smith College,Little Rock,AR,72202-3799,Higher Learning Commission,https://www.philander.edu/,1,1,3,3,5,5,12,34.737131,-92.283015,NULL
107619,110400,1104,Phillips Community College of the University of Arkansas,Helena,AR,72342-0785,Higher Learning Commission,www.pccua.edu/,1,1,1,2,5,5,41,34.546155,-90.616884,NULL
107637,570700,5707,Southeast Arkansas College,Pine Bluff,AR,71603,Higher Learning Commission,https://www.seark.edu/,1,1,1,2,5,5,13,34.210309,-92.025936,NULL
107655,2202400,22024,Professional Cosmetology Education Center,El Dorado,AR,71730-4009,National Accrediting Commission of Career Arts and Sciences,www.pcec.edu/,1,1,1,1,5,5,33,33.216032,-92.664101,NULL
107664,2075300,20753,University of Arkansas-Pulaski Technical College,North Little Rock,AR,72118-3347,Higher Learning Commission,uaptc.edu/,1,1,1,2,5,5,13,34.782783,-92.299184,NULL
107725,573200,5732,University of Arkansas Hope-Texarkana,Hope,AR,71801,Higher Learning Commission,www.uaht.edu/,1,2,1,2,5,5,32,33.641665,-93.596762,NULL
107743,2111100,21111,University of Arkansas Community College Rich Mountain,Mena,AR,71953,Higher Learning Commission,www.uarichmountain.edu/,1,1,1,2,5,5,33,34.591449,-94.219799,NULL
107789,792100,7921,Paul Mitchell the School-Arkansas,Fayetteville,AR,72703,National Accrediting Commission of Career Arts and Sciences,https://paulmitchell.edu/arkansas/,1,1,1,1,5,5,13,36.126373,-94.153892,NULL
107831,2569600,25696,Searcy Beauty College,Searcy,AR,72143,National Accrediting Commission of Career Arts and Sciences,searcybeautycollege.com/,1,1,1,1,5,5,32,35.239148,-91.735135,NULL
107840,110500,1105,Shorter College,N Little Rock,AR,72114,Transnational Association of Christian Colleges and Schools,www.shortercollege.edu/,1,1,2,2,5,5,13,34.75933,-92.261331,NULL
107877,110600,1106,Williams Baptist University,Walnut Ridge,AR,72476,Higher Learning Commission,https://williamsbaptistuniversity.com/,1,1,3,4,5,5,42,36.125676,-90.940277,0.5878
107974,2074600,20746,South Arkansas Community College,El Dorado,AR,71731-7010,Higher Learning Commission,www.southark.edu/,1,1,1,2,5,5,33,33.209446,-92.666087,NULL
107983,110700,1107,Southern Arkansas University Main Campus,Magnolia,AR,71753,Higher Learning Commission,https://www.saumag.edu/,1,1,3,4,5,5,33,33.291618,-93.235922,0.6506
107992,773800,7738,Southern Arkansas University Tech,Camden,AR,71701-1906,Higher Learning Commission,www.sautech.edu/,1,1,1,2,5,5,42,33.628367,-92.721629,NULL
108065,3214300,32143,Velvatex College of Beauty Culture,Little Rock,AR,72202-5452,National Accrediting Commission of Career Arts and Sciences,www.velvatexcollege.com/,1,1,1,1,5,5,12,34.735685,-92.289597,NULL
108092,111000,1110,University of Arkansas-Fort Smith,Fort Smith,AR,72913-3649,Higher Learning Commission,uafs.edu/,1,1,3,4,5,5,13,35.384184,-94.373729,NULL
108232,753100,7531,Academy of Art University,San Francisco,CA,94105,Western Association of Schools and Colleges Senior Colleges and University Commission,www.academyart.edu/,1,1,3,4,6,8,11,37.787943,-122.400578,NULL
108269,3288300,32883,Academy of Chinese Culture and Health Sciences,Oakland,CA,94612,Accrediting Commission for Acupuncture and Oriental Medicine,www.acchs.edu/,1,1,4,4,6,8,11,37.805972,-122.269839,NULL
108649,2258600,22586,Avalon School of Cosmetology-Alameda,Alameda,CA,94501,NULL,avalon.edu/locations/alameda-ca/,1,1,1,1,6,8,21,37.764203,-122.243566,NULL
108667,672000,6720,College of Alameda,Alameda,CA,94501,Western Association of Schools and Colleges Accrediting Commission for Community and Junior Colleges,alameda.peralta.edu/,1,1,1,2,6,8,21,37.781017,-122.279303,NULL
108807,111100,1111,Allan Hancock College,Santa Maria,CA,93454-6399,Western Association of Schools and Colleges Accrediting Commission for Community and Junior Colleges,www.hancockcollege.edu/,1,1,2,2,6,8,12,34.943716,-120.421144,NULL
108852,746501,7465,American Academy of Dramatic Arts-Los Angeles,Los Angeles,CA,90028,Middle States Commission on Higher Education,www.aada.edu/,0,2,2,2,6,8,11,34.095378,-118.343701,0.7847
108861,112000,1120,Berkeley School of Theology,Berkeley,CA,94704-3029,Commission on Accrediting of the Association of Theological Schools,www.absw.edu/,1,1,4,4,6,8,12,37.865252,-122.256149,NULL
108870,2222000,22220,American Film Institute Conservatory,Los Angeles,CA,90027-1625,Western Association of Schools and Colleges Senior Colleges and University Commission,www.afi.com/,1,1,4,4,6,8,11,34.10767,-118.310018,NULL
108977,1307400,13074,American Beauty College,West Covina,CA,91790,National Accrediting Commission of Career Arts and Sciences,https://www.americanbeautycollege.edu/,1,1,1,1,6,8,21,34.069367,-117.936959,NULL
109040,2241800,22418,American Career College-Los Angeles,Los Angeles,CA,90004,Accrediting Bureau of Health Education Schools,https://americancareercollege.edu/,1,2,1,2,6,8,11,34.079323,-118.292481,NULL
109086,2099200,20992,American Conservatory Theater,San Francisco,CA,94102,Western Association of Schools and Colleges Senior Colleges and University Commission,www.act-sf.org/,1,1,1,4,6,8,11,37.786923,-122.410265,NULL
109208,123200,1232,American River College,Sacramento,CA,95841-4286,Western Association of Schools and Colleges Accrediting Commission for Community and Junior Colleges,https://www.arc.losrios.edu/,1,1,1,2,6,8,21,38.65085,-121.349672,NULL
109350,111300,1113,Antelope Valley College,Lancaster,CA,93536-5426,Western Association of Schools and Colleges Accrediting Commission for Community and Junior Colleges,www.avc.edu/,1,1,2,3,6,8,21,34.676207,-118.186166,NULL
109651,111600,1116,Art Center College of Design,Pasadena,CA,91103,Western Association of Schools and Colleges Senior Colleges and University Commission,www.artcenter.edu/,1,1,3,4,6,8,12,34.169031,-118.185102,0.7084
109721,902200,9022,Associated Technical College-Los Angeles,Los Angeles,CA,90017-1604,Accrediting Commission of Career Schools and Colleges,www.atcla.edu/,1,1,1,1,6,8,11,34.056102,-118.272364,NULL
109730,2553500,25535,Associated Technical College-San Diego,San Diego,CA,92108-1630,Accrediting Commission of Career Schools and Colleges,www.atcsd.edu/,1,1,1,1,6,8,11,32.773178,-117.135196,NULL
109785,111700,1117,Azusa Pacific University,Azusa,CA,91702-7000,Western Association of Schools and Colleges Senior Colleges and University Commission,www.apu.edu/,1,1,3,4,6,8,21,34.130047,-117.888375,0.6748
109819,111800,1118,Bakersfield College,Bakersfield,CA,93305-1299,Western Association of Schools and Colleges Accrediting Commission for Community and Junior Colleges,www.bakersfieldcollege.edu/,1,1,2,3,6,8,11,35.40911,-118.973753,NULL
109907,111900,1119,Barstow Community College,Barstow,CA,92311,Western Association of Schools and Colleges Accrediting Commission for Community and Junior Colleges,www.barstow.edu/,1,1,2,2,6,8,32,34.870285,-117.023412,NULL
109934,705000,7050,Bellus Academy-Chula Vista,Chula Vista,CA,91911,National Accrediting Commission of Career Arts and Sciences,www.bellusacademy.edu/,1,1,1,1,6,8,11,32.614773,-117.083738,NULL
110060,3266300,32663,Bethesda University,Anaheim,CA,92801,Transnational Association of Christian Colleges and Schools,www.buc.edu/,1,1,3,4,6,8,11,33.842295,-117.941323,NULL
110097,112200,1122,Biola University,La Mirada,CA,90639-0001,Western Association of Schools and Colleges Senior Colleges and University Commission,https://www.biola.edu/,1,1,3,4,6,8,21,33.906203,-118.014374,0.6985
110194,2543400,25434,Brownson Technical School,Anaheim,CA,92805,Accrediting Commission of Career Schools and Colleges,https://brownson.edu/,1,1,1,1,6,8,11,33.819032,-117.905774,NULL
110219,716400,7164,Bryan University,Tempe,AZ,85281,Accrediting Commission of Career Schools and Colleges,bryanuniversity.edu/,1,1,2,4,4,6,12,33.437779,-111.944197,NULL
110246,807300,8073,Butte College,Oroville,CA,95965-8399,Western Association of Schools and Colleges Accrediting Commission for Community and Junior Colleges,www.butte.edu/,1,1,2,2,6,8,42,39.649782,-121.644831,NULL
110316,1215400,12154,California Institute of Integral Studies,San Francisco,CA,94103,Western Association of Schools and Colleges Senior Colleges and University Commission,www.ciis.edu/,1,1,3,4,6,8,11,37.774924,-122.416102,NULL
110334,112400,1124,Cabrillo College,Aptos,CA,95003,Western Association of Schools and Colleges Accrediting Commission for Community and Junior Colleges,www.cabrillo.edu/,1,1,2,2,6,8,22,36.989448,-121.924797,NULL
110361,112500,1125,California Baptist University,Riverside,CA,92504-3297,Western Association of Schools and Colleges Senior Colleges and University Commission,www.calbaptist.edu/,1,1,3,4,6,8,11,33.929321,-117.425619,0.7828
110370,112700,1127,California College of the Arts,San Francisco,CA,94107-2247,Western Association of Schools and Colleges Senior Colleges and University Commission,www.cca.edu/,1,1,3,4,6,8,11,37.767485,-122.399451,0.8503
110398,394700,3947,University of California-Hastings College of Law,San Francisco,CA,94102-4978,Western Association of Schools and Colleges Senior Colleges and University Commission,www.uchastings.edu/,1,1,4,4,6,8,11,37.781137,-122.4157,NULL
110404,113100,1131,California Institute of Technology,Pasadena,CA,91125,Western Association of Schools and Colleges Senior Colleges and University Commission,www.caltech.edu/,1,1,3,4,6,8,12,34.137349,-118.125878,0.0642
110413,113300,1133,California Lutheran University,Thousand Oaks,CA,91360-2787,Western Association of Schools and Colleges Senior Colleges and University Commission,www.callutheran.edu/,1,1,3,4,6,8,12,34.224566,-118.878924,0.7142
110422,114300,1143,California Polytechnic State University-San Luis Obispo,San Luis Obispo,CA,93407,Western Association of Schools and Colleges Senior Colleges and University Commission,calpoly.edu/,1,1,3,4,6,8,23,35.299513,-120.657311,0.2842
110468,1111700,11117,Alliant International University-San Diego,San Diego,CA,92131,Western Association of Schools and Colleges Senior Colleges and University Commission,https://www.alliant.edu/,1,6,1,4,6,8,11,32.897056,-117.094398,0.6667
110486,799300,7993,California State University-Bakersfield,Bakersfield,CA,93311-1099,Western Association of Schools and Colleges Senior Colleges and University Commission,www.csub.edu/,1,1,3,4,6,8,11,35.350005,-119.104711,0.8071
110495,115700,1157,California State University-Stanislaus,Turlock,CA,95382-0299,Western Association of Schools and Colleges Senior Colleges and University Commission,https://www.csustan.edu/,1,1,3,4,6,8,23,37.52577,-120.852511,0.8929
110510,114200,1142,California State University-San Bernardino,San Bernardino,CA,92407-2393,Western Association of Schools and Colleges Senior Colleges and University Commission,www.csusb.edu/,1,1,3,4,6,8,12,34.182622,-117.323801,0.6856
110529,114400,1144,California State Polytechnic University-Pomona,Pomona,CA,91768,Western Association of Schools and Colleges Senior Colleges and University Commission,www.cpp.edu/,1,1,3,4,6,8,21,34.057912,-117.821476,0.5459
110538,114600,1146,California State University-Chico,Chico,CA,95929-0150,Western Association of Schools and Colleges Senior Colleges and University Commission,www.csuchico.edu/,1,1,3,4,6,8,12,39.729712,-121.844859,0.7233
110547,114100,1141,California State University-Dominguez Hills,Carson,CA,90747-0005,Western Association of Schools and Colleges Senior Colleges and University Commission,https://www.csudh.edu/,1,1,3,4,6,8,13,33.864766,-118.255917,0.77
110556,114700,1147,California State University-Fresno,Fresno,CA,93740,Western Association of Schools and Colleges Senior Colleges and University Commission,www.fresnostate.edu/,1,1,3,4,6,8,11,36.811154,-119.744569,0.5794
110565,113700,1137,California State University-Fullerton,Fullerton,CA,92831-3599,Western Association of Schools and Colleges Senior Colleges and University Commission,www.fullerton.edu/,1,1,3,4,6,8,21,33.881506,-117.885446,0.5269
110574,113800,1138,California State University-East Bay,Hayward,CA,94542,Western Association of Schools and Colleges Senior Colleges and University Commission,www.csueastbay.edu/,1,1,3,4,6,8,21,37.657694,-122.054135,0.7618
110583,113900,1139,California State University-Long Beach,Long Beach,CA,90840-0115,Western Association of Schools and Colleges Senior Colleges and University Commission,www.csulb.edu/,1,1,3,4,6,8,11,33.782818,-118.11204,0.3927
110592,114000,1140,California State University-Los Angeles,Los Angeles,CA,90032-8506,Western Association of Schools and Colleges Senior Colleges and University Commission,www.calstatela.edu/,1,1,3,4,6,8,11,34.066927,-118.168965,0.4781
110608,115300,1153,California State University-Northridge,Northridge,CA,91330,Western Association of Schools and Colleges Senior Colleges and University Commission,https://www.csun.edu/,1,1,3,4,6,8,11,34.240126,-118.529319,0.5934
110617,115000,1150,California State University-Sacramento,Sacramento,CA,95819-2694,Western Association of Schools and Colleges Senior Colleges and University Commission,www.csus.edu/,1,1,3,4,6,8,11,38.559415,-121.423549,0.8226
110635,131200,1312,University of California-Berkeley,Berkeley,CA,94720,Western Association of Schools and Colleges Senior Colleges and University Commission,www.berkeley.edu/,1,1,3,4,6,8,12,37.871918,-122.260463,0.1625
110644,131300,1313,University of California-Davis,Davis,CA,95616-8678,Western Association of Schools and Colleges Senior Colleges and University Commission,ucdavis.edu/,1,1,3,4,6,8,23,38.539667,-121.749567,0.3887
110653,131400,1314,University of California-Irvine,Irvine,CA,92697,Western Association of Schools and Colleges Senior Colleges and University Commission,www.uci.edu/,1,1,3,4,6,8,11,33.648434,-117.841248,0.2654
110662,131500,1315,University of California-Los Angeles,Los Angeles,CA,90095-1405,Western Association of Schools and Colleges Senior Colleges and University Commission,www.ucla.edu/,1,1,3,4,6,8,11,34.07178,-118.442179,0.1232
110671,131600,1316,University of California-Riverside,Riverside,CA,92521,Western Association of Schools and Colleges Senior Colleges and University Commission,www.ucr.edu/,1,1,3,4,6,8,11,33.97246,-117.32741,0.5652
110680,131700,1317,University of California-San Diego,La Jolla,CA,92093,Western Association of Schools and Colleges Senior Colleges and University Commission,www.ucsd.edu/,1,1,3,4,6,8,11,32.877749,-117.235866,0.3148
110699,131900,1319,University of California-San Francisco,San Francisco,CA,94143-0244,Western Association of Schools and Colleges Senior Colleges and University Commission,ucsf.edu/,1,1,4,4,6,8,11,37.763737,-122.458489,NULL
110705,132000,1320,University of California-Santa Barbara,Santa Barbara,CA,93106,Western Association of Schools and Colleges Senior Colleges and University Commission,www.ucsb.edu/,1,1,3,4,6,8,22,34.416297,-119.846426,0.2956
110714,132100,1321,University of California-Santa Cruz,Santa Cruz,CA,95064-1011,Western Association of Schools and Colleges Senior Colleges and University Commission,www.ucsc.edu/,1,1,3,4,6,8,13,36.995584,-122.058801,0.5131
110778,2267600,22676,Sofia University,Palo Alto,CA,94303,Western Association of Schools and Colleges Senior Colleges and University Commission,www.sofia.edu/,1,1,3,4,6,8,13,37.430325,-122.10866,NULL
110875,2065700,20657,California Beauty School,Modesto,CA,95354,National Accrediting Commission of Career Arts and Sciences,www.calbeautycollege.edu/,1,1,1,1,6,8,12,37.645217,-120.99689,NULL
110918,884400,8844,California Christian College,Fresno,CA,93727,Transnational Association of Christian Colleges and Schools,www.calchristiancollege.edu/,1,1,2,2,6,8,11,36.749366,-119.711123,1
111045,4274800,42748,Haven University,Garden Grove,CA,92840-1340,Transnational Association of Christian Colleges and Schools,www.haven.edu/,1,1,4,4,6,8,21,33.777392,-117.939412,NULL
111054,1186500,11865,California Hair Design Academy,La Mesa,CA,91942-5055,National Accrediting Commission of Career Arts and Sciences,https://chdaschools.com/,1,1,1,1,6,8,21,32.765221,-117.024261,NULL
111081,113200,1132,California Institute of the Arts,Valencia,CA,91355-2397,Western Association of Schools and Colleges Senior Colleges and University Commission,https://www.calarts.edu/,1,1,3,4,6,8,21,34.39327,-118.566837,0.2528
111188,113400,1134,California State University Maritime Academy,Vallejo,CA,94590-8181,Western Association of Schools and Colleges Senior Colleges and University Commission,https://www.csum.edu/,1,1,3,4,6,8,12,38.069061,-122.231551,0.7621
111391,1310300,13103,California Western School of Law,San Diego,CA,92101-3046,Western Association of Schools and Colleges Senior Colleges and University Commission,https://www.cwsl.edu/,1,1,4,4,6,8,11,32.722192,-117.162416,NULL
111434,697300,6973,Canada College,Redwood City,CA,94061-1099,Western Association of Schools and Colleges Accrediting Commission for Community and Junior Colleges,canadacollege.edu/,1,1,2,2,6,8,21,37.44877,-122.265398,NULL
111461,890300,8903,College of the Canyons,Santa Clarita,CA,91355-1899,Western Association of Schools and Colleges Accrediting Commission for Community and Junior Colleges,www.canyons.edu/,1,1,2,2,6,8,21,34.403993,-118.568698,NULL
111513,2125000,21250,Career Academy of Beauty,Garden Grove,CA,92845,National Accrediting Commission of Career Arts and Sciences,caofb.com/,1,1,1,1,6,8,21,33.781018,-118.031697,NULL
111638,673100,6731,Casa Loma College-Van Nuys,Van Nuys,CA,91405,Accrediting Bureau of Health Education Schools,https://www.casalomacollege.edu/,1,1,2,2,6,8,11,34.192829,-118.457781,NULL
111708,2332809,23328,CET-San Diego,San Diego,CA,92102,Council on Occupational Education,https://www.cetweb.edu/,0,12,1,1,6,8,11,32.711302,-117.105328,NULL
111717,2332800,23328,CET-San Jose,San Jose,CA,95110,Council on Occupational Education,https://cetweb.edu/,1,12,1,1,6,8,11,37.322723,-121.88698,NULL
111726,2332810,23328,CET-El Centro,El Centro,CA,92243,Council on Occupational Education,https://cetweb.edu/,0,12,1,1,6,8,13,32.790908,-115.549079,NULL
111744,2332814,23328,CET-Colton,Colton,CA,92324,Council on Occupational Education,https://cetweb.edu/,0,12,1,1,6,8,21,34.077381,-117.353488,NULL
111762,2332819,23328,CET-Watsonville,Watsonville,CA,95076,Council on Occupational Education,https://www.cetweb.edu/,0,12,1,1,6,8,13,36.931833,-121.767991,NULL
111799,2332813,23328,CET-Salinas,Salinas,CA,93906,Council on Occupational Education,https://cetweb.edu/,0,12,1,1,6,8,12,36.707333,-121.65236,NULL
111887,116100,1161,Cerritos College,Norwalk,CA,90650-6298,Western Association of Schools and Colleges Accrediting Commission for Community and Junior Colleges,www.cerritos.edu/,1,1,2,2,6,8,21,33.886874,-118.097337,NULL
111896,1011100,10111,Cerro Coso Community College,Ridgecrest,CA,93555-9571,Western Association of Schools and Colleges Accrediting Commission for Community and Junior Colleges,cerrocoso.edu/,1,1,2,2,6,8,41,35.567525,-117.66767,NULL
111920,116200,1162,Chabot College,Hayward,CA,94545,Western Association of Schools and Colleges Accrediting Commission for Community and Junior Colleges,www.chabotcollege.edu/,1,1,2,2,6,8,21,37.642458,-122.105636,NULL
111939,116300,1163,Chaffey College,Rancho Cucamonga,CA,91737-3002,Western Association of Schools and Colleges Accrediting Commission for Community and Junior Colleges,https://www.chaffey.edu/,1,1,2,2,6,8,21,34.147663,-117.573932,NULL
111948,116400,1164,Chapman University,Orange,CA,92866,Western Association of Schools and Colleges Senior Colleges and University Commission,https://www.chapman.edu/,1,1,3,4,6,8,12,33.79302,-117.852518,0.5565
111966,1036500,10365,Charles R Drew University of Medicine and Science,Los Angeles,CA,90059,Western Association of Schools and Colleges Senior Colleges and University Commission,www.cdrewu.edu/,1,1,2,4,6,8,21,33.925658,-118.242791,0.3164
112075,2070500,20705,Concordia University-Irvine,Irvine,CA,92612-3203,Western Association of Schools and Colleges Senior Colleges and University Commission,www.cui.edu/,1,1,3,4,6,8,11,33.653665,-117.812305,0.7081
112084,1203100,12031,San Diego Christian College,Santee,CA,92071,Western Association of Schools and Colleges Senior Colleges and University Commission,sdcc.edu/,1,1,3,4,6,8,21,32.842404,-116.978112,0.5526
112093,4281600,42816,Stockton Christian Life College,Stockton,CA,95210-1401,Western Association of Schools and Colleges Senior Colleges and University Commission,www.clc.edu,1,1,0,0,6,8,11,38.029827,-121.296258,NULL
112127,116500,1165,Church Divinity School of the Pacific,Berkeley,CA,94709-1211,Commission on Accrediting of the Association of Theological Schools,www.cdsp.edu/,1,1,4,4,6,8,12,37.876184,-122.261122,NULL
112172,116600,1166,Citrus College,Glendora,CA,91741-1899,Western Association of Schools and Colleges Accrediting Commission for Community and Junior Colleges,https://www.citruscollege.edu/,1,1,2,2,6,8,21,34.13537,-117.886469,NULL
112181,2178700,21787,Citrus Heights Beauty College,Citrus Heights,CA,95610-1410,National Accrediting Commission of Career Arts and Sciences,chbeautycollege.com/,1,1,1,1,6,8,21,38.712951,-121.289529,NULL
112190,450200,4502,City College of San Francisco,San Francisco,CA,94112-1898,Western Association of Schools and Colleges Accrediting Commission for Community and Junior Colleges,www.ccsf.edu/,1,1,1,2,6,8,11,37.725953,-122.451155,NULL
112251,116900,1169,Claremont Graduate University,Claremont,CA,91711-6160,Western Association of Schools and Colleges Senior Colleges and University Commission,www.cgu.edu/,1,1,4,4,6,8,21,34.103585,-117.713703,NULL
112260,117000,1170,Claremont McKenna College,Claremont,CA,91711-6400,Western Association of Schools and Colleges Senior Colleges and University Commission,www.cmc.edu/,1,1,3,4,6,8,21,34.102154,-117.711188,0.103
112288,2497300,24973,Milan Institute-Visalia,Visalia,CA,93277,Council on Occupational Education,www.milaninstitute.edu/,1,2,1,1,6,8,12,36.27164,-119.312151,NULL
112367,2309500,23095,Clovis Adult Education,Clovis,CA,93611,Council on Occupational Education,clovisadult.cusd.com/,1,1,1,1,6,8,21,36.834459,-119.690369,NULL
112385,2063500,20635,Coastline Community College,Fountain Valley,CA,92708-2597,Western Association of Schools and Colleges Accrediting Commission for Community and Junior Colleges,www.coastline.edu/,1,1,2,2,6,8,13,33.715634,-117.929143,NULL
112394,117700,1177,Cogswell University of Silicon Valley,San Jose,CA,95134,Western Association of Schools and Colleges Senior Colleges and University Commission,https://cogswell.edu/,1,1,3,3,6,8,11,37.414049,-121.94087,0.4934
112455,3577300,35773,Coba Academy,Anaheim,CA,92801,National Accrediting Commission of Career Arts and Sciences,www.coba.edu/,1,1,1,1,6,8,11,33.841141,-117.943108,NULL
112525,2482700,24827,Western University of Health Sciences,Pomona,CA,91766-1854,Western Association of Schools and Colleges Senior Colleges and University Commission,www.westernu.edu/,1,1,4,4,6,8,21,34.058092,-117.747732,NULL
112561,770700,7707,Columbia College,Sonora,CA,95370,Western Association of Schools and Colleges Accrediting Commission for Community and Junior Colleges,www.gocolumbia.edu/,1,1,2,2,6,8,41,38.030367,-120.388385,NULL
112570,2110200,21102,Columbia College Hollywood,Tarzana,CA,91356-1411,Western Association of Schools and Colleges Senior Colleges and University Commission,https://www.columbiacollege.edu/,1,2,3,3,6,8,11,34.17972,-118.538793,NULL
112686,4281700,42817,Compton College,Compton,CA,90221-5393,Western Association of Schools and Colleges Accrediting Commission for Community and Junior Colleges,www.compton.edu/,1,1,2,2,6,8,21,33.878226,-118.209463,NULL
112826,119000,1190,Contra Costa College,San Pablo,CA,94806-3195,Western Association of Schools and Colleges Accrediting Commission for Community and Junior Colleges,https://www.contracosta.edu/,1,1,2,2,6,8,21,37.969381,-122.337377,NULL
113096,753600,7536,Cosumnes River College,Sacramento,CA,95823-5799,Western Association of Schools and Colleges Accrediting Commission for Community and Junior Colleges,https://www.crc.losrios.edu/,1,1,2,2,6,8,11,38.45295,-121.423108,NULL
113111,927200,9272,Crafton Hills College,Yucaipa,CA,92339-1799,Western Association of Schools and Colleges Accrediting Commission for Community and Junior Colleges,www.craftonhills.edu/,1,1,2,2,6,8,41,34.039178,-117.101173,NULL
113193,119200,1192,Cuesta College,San Luis Obispo,CA,93403-8106,Western Association of Schools and Colleges Accrediting Commission for Community and Junior Colleges,https://www.cuesta.edu/,1,1,1,2,6,8,23,35.331276,-120.742235,NULL
113218,2111300,21113,Cuyamaca College,El Cajon,CA,92019,Western Association of Schools and Colleges Accrediting Commission for Community and Junior Colleges,https://www.cuyamaca.edu/,1,1,2,2,6,8,21,32.744954,-116.943507,NULL
113236,119300,1193,Cypress College,Cypress,CA,90630-5897,Western Association of Schools and Colleges Accrediting Commission for Community and Junior Colleges,www.cypresscollege.edu/,1,1,1,3,6,8,21,33.82833,-118.025143,NULL
113333,448000,4480,De Anza College,Cupertino,CA,95014,Western Association of Schools and Colleges Accrediting Commission for Community and Junior Colleges,www.deanza.edu/,1,1,2,2,6,8,13,37.319914,-122.045783,NULL
113449,3964400,39644,International School of Beauty Inc,Palm Desert,CA,92260-2740,National Accrediting Commission of Career Arts and Sciences,https://btyschool.com/,1,1,1,1,6,8,13,33.729555,-116.403928,NULL
113537,3025600,30256,Dell'Arte International School of Physical Theatre,Blue Lake,CA,95525-0816,National Association of Schools of Theatre,www.dellarte.com/school,1,1,1,4,6,8,41,40.880924,-123.988808,NULL
113573,118200,1182,College of the Desert,Palm Desert,CA,92260,Western Association of Schools and Colleges Accrediting Commission for Community and Junior Colleges,www.collegeofthedesert.edu/,1,1,2,2,6,8,13,33.732108,-116.388271,NULL
113582,2298000,22980,Design Institute of San Diego,San Diego,CA,92121,Western Association of Schools and Colleges Senior Colleges and University Commission,www.disd.edu/,1,1,3,3,6,8,11,32.880926,-117.167374,0.8667
113634,119100,1191,Diablo Valley College,Pleasant Hill,CA,94523,Western Association of Schools and Colleges Accrediting Commission for Community and Junior Colleges,https://www.dvc.edu/,1,1,2,2,6,8,21,37.968516,-122.073142,NULL
113698,119600,1196,Dominican University of California,San Rafael,CA,94901-2298,Western Association of Schools and Colleges Senior Colleges and University Commission,https://www.dominican.edu/,1,1,3,4,6,8,13,37.981279,-122.512051,0.9134
113704,129600,1296,Dominican School of Philosophy & Theology,Berkeley,CA,94708-1816,Western Association of Schools and Colleges Senior Colleges and University Commission,https://www.dspt.edu/,1,1,4,4,6,8,12,37.881099,-122.264612,NULL
113856,2226000,22260,East Los Angeles College,Monterey Park,CA,91754-6099,Western Association of Schools and Colleges Accrediting Commission for Community and Junior Colleges,www.elac.edu/,1,1,1,2,6,8,21,34.040531,-118.148785,NULL
113980,119700,1197,El Camino Community College District,Torrance,CA,90506,Western Association of Schools and Colleges Accrediting Commission for Community and Junior Colleges,www.elcamino.edu/,1,1,2,2,6,8,21,33.885229,-118.329913,NULL
114114,2609000,26090,Emperor's College of Traditional Oriental Medicine,Santa Monica,CA,90403,Accrediting Commission for Acupuncture and Oriental Medicine,www.emperors.edu/,1,1,4,4,6,8,13,34.030438,-118.485119,NULL
114123,903200,9032,Empire College,Santa Rosa,CA,95403-2126,Accrediting Council for Independent Colleges and Schools,www.empcol.edu/,1,1,1,4,6,8,12,38.468052,-122.729337,NULL
114266,1245200,12452,Evergreen Valley College,San Jose,CA,95135-1598,Western Association of Schools and Colleges Accrediting Commission for Community and Junior Colleges,www.evc.edu/,1,1,2,2,6,8,11,37.30167,-121.76561,NULL
114354,1111200,11112,FIDM-Fashion Institute of Design & Merchandising-Los Angeles,Los Angeles,CA,90015-1421,Western Association of Schools and Colleges Senior Colleges and University Commission,www.fidm.edu/,1,4,2,4,6,8,11,34.044209,-118.25993,0.3624
114390,1111202,11112,FIDM-Fashion Institute of Design & Merchandising-San Francisco,San Francisco,CA,94108-5805,Western Association of Schools and Colleges Senior Colleges and University Commission,www.fidm.edu/,0,4,2,3,6,8,11,37.786353,-122.406651,0.4061
114433,859700,8597,Feather River Community College District,Quincy,CA,95971-9124,Western Association of Schools and Colleges Accrediting Commission for Community and Junior Colleges,www.frc.edu/,1,1,2,3,6,8,41,39.953101,-120.973067,NULL
114460,725300,7253,Federico Beauty Institute,Sacramento,CA,95834,National Accrediting Commission of Career Arts and Sciences,federico.edu/,1,1,1,1,6,8,21,38.64883,-121.497761,NULL
114549,2096100,20961,Fielding Graduate University,Santa Barbara,CA,93105-3538,Western Association of Schools and Colleges Senior Colleges and University Commission,www.fielding.edu/,1,1,4,4,6,8,13,34.42941,-119.717161,NULL
114585,3131300,31313,Five Branches University,Santa Cruz,CA,95062,Accrediting Commission for Acupuncture and Oriental Medicine,www.fivebranches.edu/,1,2,4,4,6,8,22,36.964348,-121.998245,NULL
114637,720900,7209,Redondo Beach Beauty College,Redondo Beach,CA,90278-3111,National Accrediting Commission of Career Arts and Sciences,rbbeautycollege.com/,1,1,1,1,6,8,21,33.873098,-118.372137,NULL
114716,119900,1199,Foothill College,Los Altos Hills,CA,94022,Western Association of Schools and Colleges Accrediting Commission for Community and Junior Colleges,https://foothill.edu/,1,1,2,3,6,8,21,37.361655,-122.127964,NULL
114734,1179200,11792,Franciscan School of Theology,San Diego,CA,92110,Western Association of Schools and Colleges Senior Colleges and University Commission,www.fst.edu/,1,2,4,4,6,8,11,32.770816,-117.192073,NULL
114761,2230900,22309,Fredrick and Charles Beauty College,Eureka,CA,95501,National Accrediting Commission of Career Arts and Sciences,www.fandcbeauty.com/,1,1,1,1,6,8,33,40.798885,-124.164986,NULL
114789,130700,1307,Fresno City College,Fresno,CA,93741,Western Association of Schools and Colleges Accrediting Commission for Community and Junior Colleges,www.fresnocitycollege.edu/,1,1,2,2,6,8,11,36.768164,-119.796096,NULL
114813,125300,1253,Fresno Pacific University,Fresno,CA,93702-4709,Western Association of Schools and Colleges Senior Colleges and University Commission,www.fresno.edu/,1,1,3,4,6,8,11,36.726831,-119.735199,0.6608
114840,120000,1200,Fuller Theological Seminary,Pasadena,CA,91182,Western Association of Schools and Colleges Senior Colleges and University Commission,www.fuller.edu/,1,1,4,4,6,8,12,34.14778,-118.140261,NULL
114859,120100,1201,Fullerton College,Fullerton,CA,92832-2095,Western Association of Schools and Colleges Accrediting Commission for Community and Junior Colleges,www.fullcoll.edu/,1,1,2,2,6,8,21,33.875514,-117.918255,NULL
114938,120200,1202,Gavilan College,Gilroy,CA,95020,Western Association of Schools and Colleges Accrediting Commission for Community and Junior Colleges,https://www.gavilan.edu/,1,1,1,2,6,8,23,36.972627,-121.569842,NULL
114947,2231900,22319,Gemological Institute of America-Carlsbad,Carlsbad,CA,92008,Accrediting Commission of Career Schools and Colleges,www.gia.edu/gem-education,1,2,1,1,6,8,12,33.131313,-117.318765,NULL
115001,120300,1203,Glendale Community College,Glendale,CA,91208-2894,Western Association of Schools and Colleges Accrediting Commission for Community and Junior Colleges,https://www.glendale.edu/,1,1,2,2,6,8,12,34.16745,-118.227666,NULL
115010,2338500,23385,Glendale Career College,Glendale,CA,91203,Accrediting Bureau of Health Education Schools,www.success.edu/,1,3,1,2,6,8,12,34.149771,-118.254719,NULL
115083,120500,1205,Golden Gate University-San Francisco,San Francisco,CA,94105-2968,Western Association of Schools and Colleges Senior Colleges and University Commission,www.ggu.edu/,1,3,3,4,6,8,11,37.789374,-122.398969,NULL
115126,120600,1206,Golden West College,Huntington Beach,CA,92647-2710,Western Association of Schools and Colleges Accrediting Commission for Community and Junior Colleges,www.goldenwestcollege.edu/,1,1,2,2,6,8,21,33.732531,-118.002568,NULL
115214,120700,1207,Graduate Theological Union,Berkeley,CA,94709,Commission on Accrediting of the Association of Theological Schools,www.gtu.edu/,1,1,4,4,6,8,12,37.87554,-122.261847,NULL
115296,120800,1208,Grossmont College,El Cajon,CA,92020-1799,Western Association of Schools and Colleges Accrediting Commission for Community and Junior Colleges,https://www.grossmont.edu/,1,1,2,2,6,8,21,32.815246,-117.006277,NULL
115357,2211000,22110,Salon Success Academy-Riverside,Riverside,CA,92506,National Accrediting Commission of Career Arts and Sciences,www.gotobeautyschool.com/,1,1,1,1,6,8,11,33.943149,-117.391024,NULL
115393,120900,1209,Hartnell College,Salinas,CA,93901,Western Association of Schools and Colleges Accrediting Commission for Community and Junior Colleges,www.hartnell.edu/,1,1,2,2,6,8,12,36.675091,-121.666054,NULL
115409,117100,1171,Harvey Mudd College,Claremont,CA,91711,Western Association of Schools and Colleges Senior Colleges and University Commission,https://www.hmc.edu/,1,1,3,3,6,8,21,34.106515,-117.709837,0.1367
115658,2285100,22851,Hilltop Beauty School,Daly City,CA,94014,National Accrediting Commission of Career Arts and Sciences,www.hilltopbeautyschool.com/,1,1,1,1,6,8,21,37.705502,-122.461467,NULL
115728,118300,1183,Holy Names University,Oakland,CA,94619-1699,Western Association of Schools and Colleges Senior Colleges and University Commission,www.hnu.edu/,1,1,3,4,6,8,11,37.802276,-122.187804,0.6325
115746,3126800,31268,Pacifica Graduate Institute,Carpinteria,CA,93013,Western Association of Schools and Colleges Senior Colleges and University Commission,www.pacifica.edu/,1,1,4,4,6,8,41,34.420881,-119.580414,NULL
115755,114900,1149,Humboldt State University,Arcata,CA,95521-8299,Western Association of Schools and Colleges Senior Colleges and University Commission,www.humboldt.edu/,1,1,3,4,6,8,33,40.877481,-124.078293,0.9217
115773,121200,1212,Humphreys University-Stockton and Modesto Campuses,Stockton,CA,95207-3896,Western Association of Schools and Colleges Senior Colleges and University Commission,www.humphreys.edu/,1,2,3,4,6,8,11,38.011489,-121.316918,NULL
115861,121400,1214,Imperial Valley College,Imperial,CA,92251-0158,Western Association of Schools and Colleges Accrediting Commission for Community and Junior Colleges,www.imperial.edu/,1,1,2,2,6,8,41,32.827209,-115.503563,NULL
115931,2128300,21283,Institute for Business and Technology,Santa Clara,CA,95051-1303,Accrediting Commission of Career Schools and Colleges,https://ibt.edu/,1,3,1,2,6,8,12,37.368642,-121.969541,NULL
116226,2520300,25203,Interior Designers Institute,Newport Beach,CA,92660,Accrediting Commission of Career Schools and Colleges,https://www.idi.edu/,1,1,2,4,6,8,13,33.641393,-117.865722,NULL
116350,2255400,22554,International School of Cosmetology,Los Angeles,CA,90036,National Accrediting Commission of Career Arts and Sciences,www.toniguy.edu/,1,3,1,1,6,8,11,34.080053,-118.361176,NULL
116439,2539500,25395,Irvine Valley College,Irvine,CA,92618-0301,Western Association of Schools and Colleges Accrediting Commission for Community and Junior Colleges,www.ivc.edu/,1,2,2,2,6,8,11,33.675381,-117.777539,NULL
116563,1202600,12026,Bellus Academy-El Cajon,El Cajon,CA,92021,National Accrediting Commission of Career Arts and Sciences,www.bellusacademy.edu/,1,1,1,1,6,8,21,32.794072,-116.94627,NULL
116712,448400,4484,John F. Kennedy University,Pleasant Hill,CA,94523-4817,NULL,https://www.jfku.edu/,1,1,3,4,6,8,21,37.956616,-122.054761,1
116846,274100,2741,American Jewish University,Los Angeles,CA,90077-1519,Western Association of Schools and Colleges Senior Colleges and University Commission,www.aju.edu/,1,1,3,4,6,8,11,34.128153,-118.471706,NULL
117052,130800,1308,Reedley College,Reedley,CA,93654,Western Association of Schools and Colleges Accrediting Commission for Community and Junior Colleges,www.reedleycollege.edu/,1,1,2,2,6,8,32,36.605428,-119.458555,NULL
117104,2270600,22706,Life Pacific University,San Dimas,CA,91773-3298,Western Association of Schools and Colleges Senior Colleges and University Commission,https://www.lifepacific.edu/,1,2,3,4,6,8,21,34.098705,-117.829388,0.9137
117140,121600,1216,University of La Verne,La Verne,CA,91750-4401,Western Association of Schools and Colleges Senior Colleges and University Commission,www.laverne.edu/,1,1,3,4,6,8,21,34.100855,-117.773262,0.5482
117168,2330500,23305,Laguna College of Art and Design,Laguna Beach,CA,92651,Western Association of Schools and Colleges Senior Colleges and University Commission,www.lcad.edu/,1,1,3,4,6,8,41,33.561448,-117.772564,0.8097
117195,1290700,12907,Lake Tahoe Community College,South Lake Tahoe,CA,96150,Western Association of Schools and Colleges Accrediting Commission for Community and Junior Colleges,www.ltcc.edu/,1,1,2,2,6,8,41,38.926797,-119.972574,NULL
117238,1301000,13010,Lancaster Beauty School,Lancaster,CA,93534,National Accrediting Commission of Career Arts and Sciences,lancasterbeautyschool.com/,1,1,1,1,6,8,21,34.694914,-118.147547,NULL
117247,126600,1266,Laney College,Oakland,CA,94607,Western Association of Schools and Colleges Accrediting Commission for Community and Junior Colleges,laney.edu/,1,1,2,2,6,8,11,37.797257,-122.26283,NULL
117274,121700,1217,Lassen Community College,Susanville,CA,96130,Western Association of Schools and Colleges Accrediting Commission for Community and Junior Colleges,www.lassencollege.edu/,1,1,2,2,6,8,41,40.432053,-120.633271,NULL
117520,2228500,22285,Life Chiropractic College West,Hayward,CA,94545-2800,Western Association of Schools and Colleges Senior Colleges and University Commission,www.lifewest.edu/,1,1,4,4,6,8,21,37.638099,-122.117619,NULL
117557,697500,6975,Lincoln University,Oakland,CA,94612-2801,Accrediting Council for Independent Colleges and Schools,www.lincolnuca.edu/,1,1,3,4,6,8,11,37.804788,-122.269745,NULL
117575,3332300,33323,Southern California Seminary,El Cajon,CA,92019-1108,Transnational Association of Christian Colleges and Schools,www.socalsem.edu/,1,1,3,4,6,8,21,32.799614,-116.905461,NULL
117627,121500,1215,La Sierra University,Riverside,CA,92505-8247,Western Association of Schools and Colleges Senior Colleges and University Commission,https://lasierra.edu/,1,1,3,4,6,8,11,33.910704,-117.500054,0.552
117636,121800,1218,Loma Linda University,Loma Linda,CA,92350,Western Association of Schools and Colleges Senior Colleges and University Commission,www.llu.edu/index.html,1,1,3,4,6,8,21,34.051241,-117.260605,NULL
117645,121900,1219,Long Beach City College,Long Beach,CA,90808-1706,Western Association of Schools and Colleges Accrediting Commission for Community and Junior Colleges,www.lbcc.edu/,1,1,2,2,6,8,11,33.833593,-118.135633,NULL
117672,122900,1229,Southern California University of Health Sciences,Whittier,CA,90604,Western Association of Schools and Colleges Senior Colleges and University Commission,www.scuhs.edu/,1,1,1,4,6,8,21,33.922966,-117.983401,NULL
117690,122400,1224,Los Angeles Harbor College,Wilmington,CA,90744-2397,Western Association of Schools and Colleges Accrediting Commission for Community and Junior Colleges,www.lahc.edu/,1,1,2,2,6,8,11,33.785825,-118.283549,NULL
117706,122600,1226,Los Angeles Pierce College,Woodland Hills,CA,91371-0002,Western Association of Schools and Colleges Accrediting Commission for Community and Junior Colleges,www.piercecollege.edu/,1,1,2,2,6,8,11,34.183949,-118.575071,NULL
117715,704700,7047,Los Angeles Southwest College,Los Angeles,CA,90047-4899,Western Association of Schools and Colleges Accrediting Commission for Community and Junior Colleges,www.lasc.edu/,1,1,2,2,6,8,21,33.929586,-118.304674,NULL
117724,122700,1227,Los Angeles Trade Technical College,Los Angeles,CA,90015-4181,Western Association of Schools and Colleges Accrediting Commission for Community and Junior Colleges,www.lattc.edu/,1,1,1,2,6,8,11,34.031907,-118.269447,NULL
117733,122800,1228,Los Angeles Valley College,Valley Glen,CA,91401-4096,Western Association of Schools and Colleges Accrediting Commission for Community and Junior Colleges,www.lavc.edu/,1,1,2,2,6,8,11,34.175165,-118.421734,NULL
117751,122000,1220,The Master's University and Seminary,Santa Clarita,CA,91321-1200,Western Association of Schools and Colleges Senior Colleges and University Commission,www.masters.edu/,1,1,3,4,6,8,21,34.381755,-118.518193,0.6712
117788,122300,1223,Los Angeles City College,Los Angeles,CA,90029,Western Association of Schools and Colleges Accrediting Commission for Community and Junior Colleges,www.lacitycollege.edu/,1,1,1,2,6,8,11,34.087301,-118.292169,NULL
117803,616500,6165,Los Angeles County College of Nursing and Allied Health,Los Angeles,CA,90033-1084,Western Association of Schools and Colleges Accrediting Commission for Community and Junior Colleges,dhs.lacounty.gov/wps/portal/dhs/conah/,1,1,2,2,6,8,11,34.062647,-118.211852,NULL
117867,1255000,12550,Los Angeles Mission College,Sylmar,CA,91342-3200,Western Association of Schools and Colleges Accrediting Commission for Community and Junior Colleges,www.lamission.edu/,1,1,2,2,6,8,11,34.314668,-118.4195,NULL
117894,1034000,10340,Los Medanos College,Pittsburg,CA,94565,Western Association of Schools and Colleges Accrediting Commission for Community and Junior Colleges,https://www.losmedanos.edu/,1,1,2,2,6,8,21,38.006474,-121.860967,NULL
117946,1164900,11649,Loyola Marymount University,Los Angeles,CA,90045-2659,Western Association of Schools and Colleges Senior Colleges and University Commission,https://www.lmu.edu/,1,1,3,4,6,8,11,33.97085,-118.415744,0.4384
117955,1186600,11866,Lu Ross Academy,Ventura,CA,93001-2729,National Accrediting Commission of Career Arts and Sciences,www.lurossacademy.com/,1,1,1,1,6,8,12,34.278034,-119.293952,NULL
118134,714201,7142,Lyle's College of Beauty,Bakersfield,CA,93301,National Accrediting Commission of Career Arts and Sciences,lylescolleges.com/,0,2,1,1,6,8,11,35.386539,-119.02387,NULL
118143,714200,7142,Lyle's College of  Beauty,Fresno,CA,93710,National Accrediting Commission of Career Arts and Sciences,lylescolleges.com/,1,2,1,1,6,8,11,36.836265,-119.774167,NULL
118161,1324000,13240,Lytles Redwood Empire Beauty College Inc,Santa Rosa,CA,95403,National Accrediting Commission of Career Arts and Sciences,www.lytlesrebc.edu/,1,1,1,1,6,8,21,38.508385,-122.75777,NULL
118198,1291200,12912,MTI College,Sacramento,CA,95841-9817,Western Association of Schools and Colleges Accrediting Commission for Community and Junior Colleges,www.mticollege.edu/,1,1,1,2,6,8,21,38.661377,-121.342568,0.8103
118347,117800,1178,College of Marin,Kentfield,CA,94904-2590,Western Association of Schools and Colleges Accrediting Commission for Community and Junior Colleges,www.marin.edu/,1,1,2,2,6,8,21,37.954897,-122.549149,NULL
118541,1047400,10474,Marymount California University,Rancho Palos Verdes,CA,90275-6299,Western Association of Schools and Colleges Senior Colleges and University Commission,www.marymountcalifornia.edu/,1,3,3,4,6,8,21,33.734887,-118.333371,NULL
118684,1167200,11672,Mendocino College,Ukiah,CA,95482,Western Association of Schools and Colleges Accrediting Commission for Community and Junior Colleges,www.mendocino.edu/,1,1,2,2,6,8,41,39.188989,-123.228809,NULL
118693,123600,1236,Menlo College,Atherton,CA,94027-4301,Western Association of Schools and Colleges Senior Colleges and University Commission,www.menlo.edu/,1,1,3,3,6,8,21,37.453475,-122.190797,0.6272
118718,123700,1237,Merced College,Merced,CA,95348-2898,Western Association of Schools and Colleges Accrediting Commission for Community and Junior Colleges,www.mccd.edu/,1,1,2,2,6,8,13,37.3353,-120.476464,NULL
118772,126700,1267,Merritt College,Oakland,CA,94619-3196,Western Association of Schools and Colleges Accrediting Commission for Community and Junior Colleges,www.merritt.edu/,1,1,1,2,6,8,11,37.789088,-122.167335,NULL
118888,123800,1238,Mills College,Oakland,CA,94613,Western Association of Schools and Colleges Senior Colleges and University Commission,https://www.mills.edu/,1,1,3,4,6,8,11,37.781425,-122.182294,0.7585
118912,123900,1239,MiraCosta College,Oceanside,CA,92056-3899,Western Association of Schools and Colleges Accrediting Commission for Community and Junior Colleges,www.miracosta.edu/,1,2,2,3,6,8,21,33.190483,-117.302606,NULL
118930,2119100,21191,Mission College,Santa Clara,CA,95054-1897,Western Association of Schools and Colleges Accrediting Commission for Community and Junior Colleges,www.missioncollege.edu/,1,1,2,2,6,8,12,37.391935,-121.980783,NULL
118958,720400,7204,Modern Beauty Academy,Oxnard,CA,93030,National Accrediting Commission of Career Arts and Sciences,www.modernbeautyacademy.org/,1,1,1,1,6,8,12,34.195384,-119.181423,NULL
118976,124000,1240,Modesto Junior College,Modesto,CA,95350-5800,Western Association of Schools and Colleges Accrediting Commission for Community and Junior Colleges,www.mjc.edu/,1,1,2,3,6,8,12,37.651056,-121.009792,NULL
118994,2185800,21858,Moler Barber College,Oakland,CA,94609-2419,Accrediting Commission of Career Schools and Colleges,moler.org/,1,1,1,1,6,8,11,37.827075,-122.265352,NULL
119058,369110,3691,Middlebury Institute of International Studies at Monterey,Monterey,CA,93940,New England Commission on Higher Education,www.middlebury.edu/institute/,0,2,3,4,6,8,22,36.599736,-121.897325,NULL
119067,124200,1242,Monterey Peninsula College,Monterey,CA,93940-4799,Western Association of Schools and Colleges Accrediting Commission for Community and Junior Colleges,www.mpc.edu/,1,1,2,2,6,8,22,36.590558,-121.884931,NULL
119137,711500,7115,Moorpark College,Moorpark,CA,93021-1695,Western Association of Schools and Colleges Accrediting Commission for Community and Junior Colleges,www.moorparkcollege.edu/index.shtml,1,1,2,2,6,8,22,34.301146,-118.834528,NULL
119164,124500,1245,Mt San Antonio College,Walnut,CA,91789-1399,Western Association of Schools and Colleges Accrediting Commission for Community and Junior Colleges,www.mtsac.edu/,1,1,2,2,6,8,21,34.047764,-117.846629,NULL
119173,124300,1243,Mount Saint Mary's University,Los Angeles,CA,90049-1599,Western Association of Schools and Colleges Senior Colleges and University Commission,https://www.msmu.edu/,1,2,3,4,6,8,11,34.085315,-118.482879,0.8965
119216,124600,1246,Mt San Jacinto Community College District,San Jacinto,CA,92583-2399,Western Association of Schools and Colleges Accrediting Commission for Community and Junior Colleges,www.msjc.edu/,1,1,2,2,6,8,22,33.806748,-116.971169,NULL
119270,2161800,21618,Musicians Institute,Hollywood,CA,90028,National Association of Schools of Music,www.mi.edu/,1,1,1,3,6,8,11,34.101265,-118.337582,0.6871
119331,124700,1247,Napa Valley College,Napa,CA,94558-6236,Western Association of Schools and Colleges Accrediting Commission for Community and Junior Colleges,www.napavalley.edu/,1,1,2,2,6,8,13,38.274081,-122.274381,NULL
119553,2542300,25423,National Holistic Institute,Emeryville,CA,94608-2008,Accrediting Council for Continuing Education & Training,www.nhi.edu/,1,1,1,1,6,8,21,37.841898,-122.287672,NULL
119605,1146000,11460,National University,La Jolla,CA,92037-1011,Western Association of Schools and Colleges Senior Colleges and University Commission,www.nu.edu/,1,1,3,4,6,8,11,32.909894,-117.243026,0.8947
119678,131000,1310,Naval Postgraduate School,Monterey,CA,93943,Western Association of Schools and Colleges Senior Colleges and University Commission,https://www.nps.edu/,1,1,4,4,6,0,22,36.597159,-121.874248,NULL
119775,3043900,30439,Newschool of Architecture and Design,San Diego,CA,92101,Western Association of Schools and Colleges Senior Colleges and University Commission,www.newschoolarch.edu/,1,1,3,4,6,8,11,32.71331,-117.153305,0.9836
119845,713000,7130,Newberry School of Beauty,Granada Hills,CA,91344-7401,NULL,www.newberryschoolofbeauty.net/,1,1,1,1,6,8,11,34.256683,-118.499693,NULL
119951,718700,7187,North Adrian's College of Beauty Inc,Modesto,CA,95350-2381,National Accrediting Commission of Career Arts and Sciences,www.adrians.edu/,1,1,1,1,6,8,12,37.677778,-120.992753,NULL
120069,1287200,12872,North-West College-Pomona,Pomona,CA,91768,Accrediting Commission of Career Schools and Colleges,www.north-westcollege.edu/,1,4,1,1,6,8,21,34.062043,-117.751227,NULL
120078,1170700,11707,North-West College-West Covina,West Covina,CA,91790,Accrediting Commission of Career Schools and Colleges,www.north-westcollege.edu/,1,2,1,2,6,8,21,34.072071,-117.949583,NULL
120087,2591600,25916,North-West College-Van Nuys,Van Nuys,CA,91411,Accrediting Commission of Career Schools and Colleges,www.north-westcollege.edu/,1,1,1,1,6,8,11,34.189497,-118.450184,NULL
120184,117900,1179,Notre Dame de Namur University,Belmont,CA,94002-1908,Western Association of Schools and Colleges Senior Colleges and University Commission,www.ndnu.edu/,1,1,3,4,6,8,21,37.517111,-122.284794,0.9994
120254,124900,1249,Occidental College,Los Angeles,CA,90041-3392,Western Association of Schools and Colleges Senior Colleges and University Commission,https://www.oxy.edu/,1,1,3,3,6,8,11,34.127124,-118.210908,0.3669
120290,448100,4481,Ohlone College,Fremont,CA,94539-0390,Western Association of Schools and Colleges Accrediting Commission for Community and Junior Colleges,www.ohlone.edu/,1,1,2,2,6,8,21,37.52773,-121.916339,NULL
120342,125000,1250,Orange Coast College,Costa Mesa,CA,92626,Western Association of Schools and Colleges Accrediting Commission for Community and Junior Colleges,www.orangecoastcollege.edu/,1,1,1,2,6,8,12,33.66927,-117.909086,NULL
120403,125100,1251,Otis College of Art and Design,Los Angeles,CA,90045-3505,Western Association of Schools and Colleges Senior Colleges and University Commission,www.otis.edu/,1,1,3,4,6,8,11,33.956607,-118.416615,0.7817
120421,1284200,12842,Oxnard College,Oxnard,CA,93033-6699,Western Association of Schools and Colleges Accrediting Commission for Community and Junior Colleges,www.oxnardcollege.edu/,1,1,2,2,6,8,12,34.166104,-119.157604,NULL
120537,125200,1252,Hope International University,Fullerton,CA,92831-3199,Western Association of Schools and Colleges Senior Colleges and University Commission,www.hiu.edu/,1,2,3,4,6,8,21,33.87616,-117.88573,0.3679
120661,793000,7930,Concorde Career College-San Diego,San Diego,CA,92113-1964,Accrediting Commission of Career Schools and Colleges,https://www.concorde.edu/campus/san-diego-california,1,1,1,2,6,8,11,32.702814,-117.102845,0.9096
120698,2138300,21383,Palo Alto University,Palo Alto,CA,94304-1337,Western Association of Schools and Colleges Senior Colleges and University Commission,www.paloaltou.edu/,1,1,3,4,6,8,41,37.382216,-122.187437,NULL
120768,125500,1255,Pacific Oaks College,Pasadena,CA,91103,Western Association of Schools and Colleges Senior Colleges and University Commission,https://www.pacificoaks.edu/,1,1,3,4,6,8,12,34.153382,-118.151323,0.0511
120795,125600,1256,Pacific School of Religion,Berkeley,CA,94709,Commission on Accrediting of the Association of Theological Schools,www.psr.edu/,1,1,4,4,6,8,12,37.87669,-122.263155,NULL
120838,3163300,31633,Pacific States University,Los Angeles,CA,90010-2263,Accrediting Commission of Career Schools and Colleges,www.psuca.edu/,1,1,3,4,6,8,11,34.061315,-118.298408,NULL
120865,125800,1258,Pacific Union College,Angwin,CA,94508-9707,Western Association of Schools and Colleges Senior Colleges and University Commission,https://www.puc.edu/,1,1,3,4,6,8,41,38.570585,-122.440308,0.5332
120883,132900,1329,University of the Pacific,Stockton,CA,95211-0197,Western Association of Schools and Colleges Senior Colleges and University Commission,www.pacific.edu/,1,1,3,4,6,8,11,37.981424,-121.312301,0.6561
120953,125900,1259,Palo Verde College,Blythe,CA,92225,Western Association of Schools and Colleges Accrediting Commission for Community and Junior Colleges,https://www.paloverde.edu/,1,1,1,2,6,8,42,33.661538,-114.651698,NULL
120971,126000,1260,Palomar College,San Marcos,CA,92069-1487,Western Association of Schools and Colleges Accrediting Commission for Community and Junior Colleges,www2.palomar.edu/,1,1,1,2,6,8,21,33.149483,-117.183978,NULL
121044,126100,1261,Pasadena City College,Pasadena,CA,91106-2003,Western Association of Schools and Colleges Accrediting Commission for Community and Junior Colleges,pasadena.edu/,1,1,2,2,6,8,12,34.144552,-118.118196,NULL
121150,1014900,10149,Pepperdine University,Malibu,CA,90263,Western Association of Schools and Colleges Senior Colleges and University Commission,www.pepperdine.edu/,1,1,3,4,6,8,21,34.037786,-118.707077,0.3172
121257,117200,1172,Pitzer College,Claremont,CA,91711-6101,Western Association of Schools and Colleges Senior Colleges and University Commission,https://www.pitzer.edu/,1,1,3,3,6,8,21,34.104107,-117.706675,0.137
121275,2304300,23043,Platt College-San Diego,San Diego,CA,92115-3919,Accrediting Commission of Career Schools and Colleges,www.platt.edu/,1,1,2,3,6,8,11,32.76373,-117.063483,NULL
121309,126200,1262,Point Loma Nazarene University,San Diego,CA,92106-2899,Western Association of Schools and Colleges Senior Colleges and University Commission,www.pointloma.edu/,1,1,3,4,6,8,11,32.718391,-117.250265,0.7366
121345,117300,1173,Pomona College,Claremont,CA,91711-6319,Western Association of Schools and Colleges Senior Colleges and University Commission,www.pomona.edu/,1,1,3,3,6,8,21,34.099027,-117.714556,0.074
121363,126800,1268,Porterville College,Porterville,CA,93257,Western Association of Schools and Colleges Accrediting Commission for Community and Junior Colleges,www.portervillecollege.edu/,1,1,2,2,6,8,23,36.049256,-119.014368,NULL
121433,1298400,12984,Professional Institute of Beauty,El Monte,CA,91731,National Accrediting Commission of Career Arts and Sciences,www.pib.edu/,1,1,1,1,6,8,21,34.075561,-118.039028,NULL
121619,128400,1284,Santa Ana College,Santa Ana,CA,92706-3398,Western Association of Schools and Colleges Accrediting Commission for Community and Junior Colleges,www.sac.edu/,1,1,1,3,6,8,11,33.759309,-117.887558,NULL
121628,1044100,10441,Pardee RAND Graduate School,Santa Monica,CA,90401-3208,Western Association of Schools and Colleges Senior Colleges and University Commission,www.prgs.edu/,1,1,4,4,6,8,13,34.00973,-118.490655,NULL
121637,4161700,41617,Shasta School of Cosmetology,Redding,CA,96003,National Accrediting Commission of Career Arts and Sciences,www.shastaschoolofcosmetology.com/,1,1,1,1,6,8,13,40.597114,-122.387248,NULL
121691,132200,1322,University of Redlands,Redlands,CA,92373-0999,Western Association of Schools and Colleges Senior Colleges and University Commission,www.redlands.edu/,1,1,3,4,6,8,13,34.064218,-117.163218,0.7641
121707,118500,1185,College of the Redwoods,Eureka,CA,95501-9300,Western Association of Schools and Colleges Accrediting Commission for Community and Junior Colleges,www.redwoods.edu/,1,1,2,2,6,8,41,40.698427,-124.195293,NULL
121859,720300,7203,Salon Success Academy-Upland,Upland,CA,91786,National Accrediting Commission of Career Arts and Sciences,www.gotobeautyschool.com/,1,2,1,1,6,8,21,34.108247,-117.631783,NULL
121868,1309500,13095,Salon Success Academy-Corona,Corona,CA,92881,National Accrediting Commission of Career Arts and Sciences,www.gotobeautyschool.com/,1,3,1,1,6,8,12,33.847649,-117.535638,NULL
121886,126900,1269,Rio Hondo College,Whittier,CA,90601-1616,Western Association of Schools and Colleges Accrediting Commission for Community and Junior Colleges,www.riohondo.edu/,1,1,2,3,6,8,21,34.019821,-118.033506,NULL
121901,127000,1270,Riverside City College,Riverside,CA,92506,Western Association of Schools and Colleges Accrediting Commission for Community and Junior Colleges,www.rcc.edu/riverside/,1,1,2,2,6,8,11,33.970918,-117.384323,NULL
121992,1294200,12942,Rosemead Beauty School,Rosemead,CA,91770-1639,NULL,www.rosemeadbeautyschool.edu/,1,1,1,1,6,8,21,34.080756,-118.082793,NULL
122117,3109500,31095,Dongguk University Los Angeles,Los Angeles,CA,90020-1704,Accrediting Commission for Acupuncture and Oriental Medicine,www.dula.edu/,1,1,4,4,6,8,11,34.06597,-118.289523,NULL
122180,123300,1233,Sacramento City College,Sacramento,CA,95822-1386,Western Association of Schools and Colleges Accrediting Commission for Community and Junior Colleges,https://www.scc.losrios.edu/,1,1,2,2,6,8,11,38.541096,-121.491139,NULL
122205,891800,8918,Saddleback College,Mission Viejo,CA,92692-3635,Western Association of Schools and Colleges Accrediting Commission for Community and Junior Colleges,www.saddleback.edu/,1,1,1,2,6,8,21,33.553346,-117.665584,NULL
122296,701200,7012,Samuel Merritt University,Oakland,CA,94609,Western Association of Schools and Colleges Senior Colleges and University Commission,www.samuelmerritt.edu/,1,1,3,4,6,8,11,37.82029,-122.266331,NULL
122339,127300,1273,San Diego City College,San Diego,CA,92101-4787,Western Association of Schools and Colleges Accrediting Commission for Community and Junior Colleges,www.sdcity.edu/,1,1,2,2,6,8,11,32.717403,-117.152733,NULL
122375,127500,1275,San Diego Mesa College,San Diego,CA,92111-4998,Western Association of Schools and Colleges Accrediting Commission for Community and Junior Colleges,www.sdmesa.edu/,1,1,2,3,6,8,11,32.803825,-117.169165,NULL
122384,1182000,11820,San Diego Miramar College,San Diego,CA,92126-2999,Western Association of Schools and Colleges Accrediting Commission for Community and Junior Colleges,www.sdmiramar.edu/,1,1,2,2,6,8,11,32.909757,-117.120261,NULL
122409,115100,1151,San Diego State University,San Diego,CA,92182-0001,Western Association of Schools and Colleges Senior Colleges and University Commission,www.sdsu.edu/,1,2,3,4,6,8,11,32.77525,-117.071228,0.3413
122436,1039500,10395,University of San Diego,San Diego,CA,92110-2492,Western Association of Schools and Colleges Senior Colleges and University Commission,www.sandiego.edu/,1,1,3,4,6,8,11,32.770816,-117.192073,0.4869
122454,394800,3948,San Francisco Art Institute,San Francisco,CA,94133-2299,Western Association of Schools and Colleges Senior Colleges and University Commission,www.sfai.edu/,1,1,3,4,6,8,11,37.803575,-122.417,0.9033
122506,127800,1278,San Francisco Conservatory of Music,San Francisco,CA,94102-6011,Western Association of Schools and Colleges Senior Colleges and University Commission,https://sfcm.edu/,1,1,3,4,6,8,11,37.775543,-122.420292,0.4758
122597,115400,1154,San Francisco State University,San Francisco,CA,94132,Western Association of Schools and Colleges Senior Colleges and University Commission,www.sfsu.edu/,1,1,3,4,6,8,11,37.721224,-122.476799,0.673
122603,127900,1279,University of Redlands Graduate School of Theology,San Anselmo,CA,94960-0000,Western Association of Schools and Colleges Senior Colleges and University Commission,www.sfts.edu,1,1,4,4,6,8,21,37.969952,-122.565407,NULL
122612,132500,1325,University of San Francisco,San Francisco,CA,94117-1080,Western Association of Schools and Colleges Senior Colleges and University Commission,https://www.usfca.edu/,1,1,3,4,6,8,11,37.776618,-122.450477,0.6442
122649,2500000,25000,San Joaquin College of Law,Clovis,CA,93612-1312,Western Association of Schools and Colleges Senior Colleges and University Commission,www.sjcl.edu/,1,1,4,4,6,8,21,36.82448,-119.697657,NULL
122658,128000,1280,San Joaquin Delta College,Stockton,CA,95207,Western Association of Schools and Colleges Accrediting Commission for Community and Junior Colleges,www.deltacollege.edu/,1,2,2,2,6,8,11,37.995562,-121.317597,NULL
122685,2120700,21207,San Joaquin Valley College-Visalia,Visalia,CA,93291-9283,Western Association of Schools and Colleges Senior Colleges and University Commission,www.sjvc.edu/,1,15,1,3,6,8,41,36.328049,-119.384981,NULL
122728,128100,1281,William Jessup University,Rocklin,CA,95765-3707,Western Association of Schools and Colleges Senior Colleges and University Commission,www.jessup.edu/,1,1,3,4,6,8,41,38.819728,-121.292312,0.6503
122746,128200,1282,San Jose City College,San Jose,CA,95128-2798,Western Association of Schools and Colleges Accrediting Commission for Community and Junior Colleges,www.sjcc.edu/,1,1,2,2,6,8,11,37.315827,-121.926185,NULL
122755,115500,1155,San Jose State University,San Jose,CA,95192-0001,Western Association of Schools and Colleges Senior Colleges and University Commission,www.sjsu.edu/,1,1,3,4,6,8,11,37.336569,-121.880621,0.6357
122791,118100,1181,College of San Mateo,San Mateo,CA,94402-3784,Western Association of Schools and Colleges Accrediting Commission for Community and Junior Colleges,www.collegeofsanmateo.edu/,1,1,1,2,6,8,12,37.535698,-122.334801,NULL
122834,2577900,25779,Santa Barbara Business College-Bakersfield,Bakersfield,CA,93309,Accrediting Council for Independent Colleges and Schools,sbbcollege.edu/,1,1,1,3,6,8,11,35.359544,-119.061264,NULL
122852,2578000,25780,Santa Barbara Business College-Santa Maria,Santa Maria,CA,93454,Accrediting Commission of Career Schools and Colleges,sbbcollege.edu/,1,1,1,3,6,8,12,34.937806,-120.433296,NULL
122889,128500,1285,Santa Barbara City College,Santa Barbara,CA,93109-2394,Western Association of Schools and Colleges Accrediting Commission for Community and Junior Colleges,www.sbcc.edu/,1,1,2,2,6,8,13,34.406788,-119.698045,NULL
122931,132600,1326,Santa Clara University,Santa Clara,CA,95053,Western Association of Schools and Colleges Senior Colleges and University Commission,www.scu.edu/,1,2,3,4,6,8,12,37.348362,-121.93784,0.4882
122977,128600,1286,Santa Monica College,Santa Monica,CA,90405-1628,Western Association of Schools and Colleges Accrediting Commission for Community and Junior Colleges,www.smc.edu/,1,1,1,3,6,8,13,34.017022,-118.469765,NULL
123013,128700,1287,Santa Rosa Junior College,Santa Rosa,CA,95401-4395,Western Association of Schools and Colleges Accrediting Commission for Community and Junior Colleges,www.santarosa.edu/,1,1,1,2,6,8,12,38.45709,-122.718974,NULL
123095,2120600,21206,Saybrook University,Pasadena,CA,91103,Western Association of Schools and Colleges Senior Colleges and University Commission,https://www.saybrook.edu/,1,1,4,4,6,8,12,34.153103,-118.152155,NULL
123165,117400,1174,Scripps College,Claremont,CA,91711-3905,Western Association of Schools and Colleges Senior Colleges and University Commission,www.scrippscollege.edu/,1,1,3,4,6,8,21,34.104147,-117.711294,0.32
123217,118600,1186,College of the Sequoias,Visalia,CA,93277-2214,Western Association of Schools and Colleges Accrediting Commission for Community and Junior Colleges,www.cos.edu/,1,1,2,2,6,8,12,36.323877,-119.315182,NULL
123280,2359300,23593,Shasta Bible College and Graduate School,Redding,CA,96002,Transnational Association of Christian Colleges and Schools,www.shasta.edu/,1,1,3,4,6,8,13,40.566034,-122.314419,1
123299,128900,1289,Shasta College,Redding,CA,96003,Western Association of Schools and Colleges Accrediting Commission for Community and Junior Colleges,https://www.shastacollege.edu/,1,1,2,3,6,8,22,40.625731,-122.317982,NULL
123341,129000,1290,Sierra College,Rocklin,CA,95677-3397,Western Association of Schools and Colleges Accrediting Commission for Community and Junior Colleges,https://www.sierracollege.edu/,1,1,2,2,6,8,21,38.790773,-121.211688,NULL
123350,2064300,20643,Sierra College of Beauty,Merced,CA,95340,National Accrediting Commission of Career Arts and Sciences,sierrabeautycollege.net/,1,1,1,1,6,8,13,37.306975,-120.495874,NULL
123448,177212,1772,Trinity Law School,Santa Ana,CA,92705,Higher Learning Commission,tls.edu/,0,3,4,4,6,8,11,33.766071,-117.852059,NULL
123457,129100,1291,Simpson University,Redding,CA,96003-8606,Western Association of Schools and Colleges Senior Colleges and University Commission,www.simpsonu.edu/,1,1,3,4,6,8,13,40.61334,-122.332981,0.5231
123484,118700,1187,College of the Siskiyous,Weed,CA,96094-2899,Western Association of Schools and Colleges Accrediting Commission for Community and Junior Colleges,www.siskiyous.edu/,1,1,2,2,6,8,33,41.413005,-122.38909,NULL
123493,950900,9509,Charles A Jones Career and Education Center,Sacramento,CA,95824-1529,Council on Occupational Education,www.caj.scusd.edu/,1,1,1,1,6,8,11,38.516233,-121.440796,NULL
123509,771300,7713,Skyline College,San Bruno,CA,94066-1698,Western Association of Schools and Colleges Accrediting Commission for Community and Junior Colleges,skylinecollege.edu/,1,1,2,3,6,8,21,37.63042,-122.467335,NULL
123527,127200,1272,San Bernardino Valley College,San Bernardino,CA,92410-2798,Western Association of Schools and Colleges Accrediting Commission for Community and Junior Colleges,www.valleycollege.edu/,1,1,2,2,6,8,12,34.086353,-117.313248,NULL
123554,130200,1302,Saint Mary's College of California,Moraga,CA,94575,Western Association of Schools and Colleges Senior Colleges and University Commission,https://www.stmarys-ca.edu/,1,1,3,4,6,8,21,37.840731,-122.109031,0.81
123563,129200,1292,Solano Community College,Fairfield,CA,94534-3197,Western Association of Schools and Colleges Accrediting Commission for Community and Junior Colleges,www.solano.edu/,1,1,2,3,6,8,22,38.235881,-122.122368,NULL
123572,115600,1156,Sonoma State University,Rohnert Park,CA,94928-3609,Western Association of Schools and Colleges Senior Colleges and University Commission,www.sonoma.edu/,1,1,3,4,6,8,21,38.340274,-122.677066,0.9119
123633,2597300,25973,South Baylo University,Anaheim,CA,92801-1701,Accrediting Commission for Acupuncture and Oriental Medicine,www.southbaylo.edu/,1,1,4,4,6,8,11,33.848291,-117.958416,NULL
123642,2277400,22774,South Coast College,Orange,CA,92868-2609,Accrediting Commission of Career Schools and Colleges,www.southcoastcollege.edu/,1,1,1,2,6,8,12,33.78818,-117.874031,NULL
123651,129300,1293,Vanguard University of Southern California,Costa Mesa,CA,92626,Western Association of Schools and Colleges Senior Colleges and University Commission,https://www.vanguard.edu/,1,1,3,4,6,8,12,33.662686,-117.900911,0.4945
123679,807100,8071,Concorde Career College-Garden Grove,Garden Grove,CA,92840-9201,Accrediting Commission of Career Schools and Colleges,https://www.concorde.edu/campus/garden-grove-california,1,1,1,2,6,8,21,33.774741,-117.938395,0.9522
123800,129400,1294,Southwestern College,Chula Vista,CA,91910-7299,Western Association of Schools and Colleges Accrediting Commission for Community and Junior Colleges,https://www.swccd.edu/,1,1,2,2,6,8,11,32.640281,-116.996803,NULL
123855,129900,1299,St John's Seminary,Camarillo,CA,93012-2500,Western Association of Schools and Colleges Senior Colleges and University Commission,www.stjohnsem.edu,1,1,4,4,6,8,41,34.243921,-119.001867,NULL
123916,408000,4080,Starr King School for the Ministry,Oakland,CA,94613-1209,Commission on Accrediting of the Association of Theological Schools,www.sksm.edu/,1,1,4,4,6,8,11,37.781425,-122.182294,NULL
123943,123000,1230,Marshall B Ketchum University,Fullerton,CA,92831-1699,Western Association of Schools and Colleges Senior Colleges and University Commission,www.ketchum.edu/,1,1,4,4,6,8,21,33.889348,-117.886229,NULL
123952,2075800,20758,Southern California Institute of Architecture,Los Angeles,CA,90013-1822,Western Association of Schools and Colleges Senior Colleges and University Commission,www.sciarc.edu/,1,1,3,4,6,8,11,34.044215,-118.232799,NULL
123961,132800,1328,University of Southern California,Los Angeles,CA,90089,Western Association of Schools and Colleges Senior Colleges and University Commission,www.usc.edu/,1,1,3,4,6,8,11,34.021281,-118.284169,0.1142
123970,129500,1295,Southwestern Law School,Los Angeles,CA,90010-1106,American Bar Association,www.swlaw.edu/,1,1,4,4,6,8,11,34.061558,-118.288375,NULL
124113,130900,1309,Taft College,Taft,CA,93268,Western Association of Schools and Colleges Accrediting Commission for Community and Junior Colleges,www.taftcollege.edu/,1,1,2,2,6,8,32,35.149343,-119.459751,NULL
124283,128800,1288,Claremont School of Theology,Claremont,CA,91711-3199,Western Association of Schools and Colleges Senior Colleges and University Commission,www.cst.edu/,1,1,4,4,6,8,21,34.107602,-117.715256,NULL
124292,2358000,23580,Thomas Aquinas College,Santa Paula,CA,93060,Western Association of Schools and Colleges Senior Colleges and University Commission,https://thomasaquinas.edu/,1,2,3,3,6,8,42,34.429009,-119.087141,0.7892
124487,3403300,34033,Epic Bible College,Sacramento,CA,95841,Transnational Association of Christian Colleges and Schools,epic.edu/,1,1,3,4,6,8,21,38.645152,-121.362642,NULL
124681,2559300,25593,United Education Institute-Huntington Park Campus,Huntington Park,CA,90255,Accrediting Council for Continuing Education & Training,https://www.uei.edu/,1,10,1,1,6,8,21,33.986057,-118.226206,NULL
124706,853700,8537,Concorde Career College-San Bernardino,San Bernardino,CA,92408-3403,Accrediting Commission of Career Schools and Colleges,https://www.concorde.edu/campus/san-bernardino-california,1,1,1,2,6,8,12,34.066823,-117.283995,0.9257
124937,760700,7607,Concorde Career College-North Hollywood,North Hollywood,CA,91606-3134,Accrediting Commission of Career Schools and Colleges,https://www.concorde.edu/campus/north-hollywood-california,1,1,1,2,6,8,11,34.186407,-118.403627,0.9139
125028,133400,1334,Ventura College,Ventura,CA,93003-3872,Western Association of Schools and Colleges Accrediting Commission for Community and Junior Colleges,www.venturacollege.edu/,1,1,2,2,6,8,12,34.277393,-119.230604,NULL
125037,4250100,42501,The Santa Barbara and Ventura Colleges of Law at Ventura,Ventura,CA,93003,Western Association of Schools and Colleges Senior Colleges and University Commission,https://www.collegesoflaw.edu/,1,2,4,4,6,8,12,34.25747,-119.232988,NULL
125091,133500,1335,Victor Valley College,Victorville,CA,92395-5850,Western Association of Schools and Colleges Accrediting Commission for Community and Junior Colleges,www.vvc.edu/,1,1,2,2,6,8,21,34.472231,-117.261456,NULL
125170,2242700,22427,Berkeley City College,Berkeley,CA,94704,Western Association of Schools and Colleges Accrediting Commission for Community and Junior Colleges,www.berkeleycitycollege.edu/wp/,1,1,1,2,6,8,12,37.869769,-122.269877,NULL
125231,2504200,25042,Walden University,Minneapolis,MN,55401,Higher Learning Commission,www.waldenu.edu/,1,1,3,4,27,4,11,44.98125,-93.265738,NULL
125310,2061600,20616,Waynes College of Beauty,Salinas,CA,93906-2830,National Accrediting Commission of Career Arts and Sciences,www.waynescollegeofbeauty.com/,1,1,1,1,6,8,12,36.700635,-121.652672,NULL
125462,117600,1176,West Hills College-Coalinga,Coalinga,CA,93210,Western Association of Schools and Colleges Accrediting Commission for Community and Junior Colleges,https://www.westhillscollege.com/coalinga/,1,1,2,2,6,8,32,36.147891,-120.356747,NULL
125471,859600,8596,West Los Angeles College,Culver City,CA,90230-3519,Western Association of Schools and Colleges Accrediting Commission for Community and Junior Colleges,www.wlac.edu/,1,1,2,3,6,8,21,34.004512,-118.386664,NULL
125499,133800,1338,West Valley College,Saratoga,CA,95070-5698,Western Association of Schools and Colleges Accrediting Commission for Community and Junior Colleges,www.westvalley.edu/,1,1,2,2,6,8,21,37.26398,-122.008324,NULL
125532,974800,9748,Carrington College-Sacramento,Sacramento,CA,95826,Western Association of Schools and Colleges Accrediting Commission for Community and Junior Colleges,https://carrington.edu/,1,1,1,2,6,8,21,38.556151,-121.371331,NULL
125718,2276800,22768,Westminster Theological Seminary in California,Escondido,CA,92027,Western Association of Schools and Colleges Senior Colleges and University Commission,www.wscal.edu/,1,1,4,4,6,8,21,33.121447,-117.046371,NULL
125727,134100,1341,Westmont College,Santa Barbara,CA,93108-1089,Western Association of Schools and Colleges Senior Colleges and University Commission,www.westmont.edu/,1,1,3,3,6,8,22,34.450151,-119.662517,0.648
125763,134200,1342,Whittier College,Whittier,CA,90601,Western Association of Schools and Colleges Senior Colleges and University Commission,www.whittier.edu/,1,1,3,4,6,8,21,33.978773,-118.032299,0.5711
125897,134300,1343,Woodbury University,Burbank,CA,91504-1052,Western Association of Schools and Colleges Senior Colleges and University Commission,https://woodbury.edu/,1,1,3,4,6,8,11,34.208011,-118.341147,0.6633
126012,884600,8846,The Wright Institute,Berkeley,CA,94704-1796,Western Association of Schools and Colleges Senior Colleges and University Commission,www.wi.edu/,1,2,4,4,6,8,12,37.868221,-122.253168,NULL
126049,1085400,10854,Thomas Jefferson School of Law,San Diego,CA,92101,Western Association of Schools and Colleges Senior Colleges and University Commission,www.tjsl.edu/,1,1,4,4,6,8,11,32.717595,-117.157862,NULL
